stop_id,stop_code,stop_name,stop_desc,stop_lat,stop_lon,zone_id,stop_url,location_type,parent_station,stop_timezone,wheelchair_boarding,platform_code
150604002,,"Niederpallen, Veräinsbau",,49.754886,5.911422,,,0,,,0,
150604001,,"Niederpallen, Ditzebierg",,49.755589,5.908100,,,0,,,0,
190902003,,"Holzem, Mamerstrooss",,49.617839,5.998530,,,0,,,0,
161102001,,Bour,,49.701033,6.017761,,,0,,,0,
110822004,,"Maulusmühle, Cliärrwer Strooss",,50.093937,6.027251,,,0,,,0,
110822002,,Féitsch,,50.036107,5.886586,,,0,,,0,
190501001,,"Eischen, Denn Pont",,49.683896,5.878654,,,0,,,0,
160807004,,"Lorentzweiler, rue de Blaschette",,49.703106,6.148161,,,0,,,0,
160807006,,"Lorentzweiler, Gare",,49.698461,6.140417,,,0,,,0,
400000103,,"Villerupt, Saint Nicolas",,49.474533,5.937913,,,0,,,0,
400000105,,"Rumelange, A Wiendelen",,49.451047,6.025931,,,0,,,0,
190501002,,"Eischen, rue de Hobscheid",,49.685621,5.880207,,,0,,,0,
150203002,,"Pratz, Bousserpad",,49.805756,5.939641,,,0,,,0,
400000100,,"Audun-le-Tiche, Place du Château",,49.467871,5.954425,,,0,,,0,
150203001,,"Pratz, Biebergriescht",,49.799095,5.938518,,,0,,,0,
150203004,,"Pratz, Folschterstrooss",,49.802758,5.933464,,,0,,,0,
400000102,,"Villerupt, Barbusse (Église)",,49.470392,5.930026,,,0,,,0,
150203003,,"Pratz, Brakegaertchen",,49.806120,5.931319,,,0,,,0,
400000101,,"Audun-le-Tiche, Résidence Vian",,49.475292,5.944148,,,0,,,0,
200702003,,"Neuhaeusgen, Kiischtewee",,49.623597,6.234555,,,0,,,0,
150203006,,"Pratz, Zentrum",,49.802727,5.937733,,,0,,,0,
200702002,,"Neuhaeusgen, Iewescht Neihaischen",,49.622687,6.242804,,,0,,,0,
150203005,,"Pratz, Haaptstrooss",,49.802495,5.938470,,,0,,,0,
200702001,,"Neuhaeusgen, Ennescht Neihaischen",,49.623041,6.231609,,,0,,,0,
220204008,,"Oberkorn, Aquasud",,49.513147,5.890704,,,0,,,0,
220204006,,"Oberkorn, Rousegaertchen",,49.516574,5.894688,,,0,,,0,
210905001,,Gondelengermillen,,49.548803,6.277097,,,0,,,0,
140802001,,"Oberfeulen, Place de la Chapelle",,49.847164,6.033968,,,0,,,0,
140802002,,"Oberfeulen, route d'Arlon",,49.846092,6.030041,,,0,,,0,
140802003,,"Oberfeulen, Op Hopericht",,49.849009,6.036095,,,0,,,0,
210103003,,"Erpeldange/Bous, Scheierbierg",,49.542512,6.324784,,,0,,,0,
200403020,,"Belair, Wampach",,49.609889,6.121087,,,0,,,0,
200403022,,"Luxembourg, Square New York",,49.613216,6.115948,,,0,,,0,
210103001,,"Erpeldange/Bous, Kräizgaass",,49.546080,6.327341,,,0,,,0,
200403021,,"Belair, Wandmillen",,49.615843,6.102653,,,0,,,0,
210103002,,"Erpeldange/Bous, Rollengerstrooss",,49.546753,6.324940,,,0,,,0,
200403023,,"Belair, Glaesener-Hartmann",,49.611595,6.101880,,,0,,,0,
190902002,,"Holzem, Festsall",,49.615916,5.993055,,,0,,,0,
190902001,,"Holzem, Bei der Bréck",,49.614149,5.990159,,,0,,,0,
220204001,,"Oberkorn, LTMA Annexe Jenker",,49.517518,5.902035,,,0,,,0,
110810001,,"Hamiville, Beim Toutschewee",,50.044850,5.896260,,,0,,,0,
220204004,,"Oberkorn, Place Prince Jean",,49.515565,5.896977,,,0,,,0,
110810002,,"Hamiville, Haaptstrooss",,50.047308,5.901033,,,0,,,0,
220204005,,"Oberkorn, Post",,49.514782,5.896639,,,0,,,0,
220204002,,"Oberkorn, Chiers",,49.516623,5.891824,,,0,,,0,
220204003,,"Oberkorn, Neiduerf",,49.514549,5.902388,,,0,,,0,
221301002,,"Belval-Rédange, Gare",,49.503162,5.923706,,,0,,,0,
200415001,,"Hollerich, Alphonse Munchen",,49.604515,6.114815,,,0,,,0,
200415002,,"Hollerich, Assurances Sociales",,49.597233,6.117916,,,0,,,0,
200415003,,"Hollerich, Fonderie",,49.598575,6.126667,,,0,,,0,
200415004,,"Hollerich, Gare routière",,49.595176,6.120957,,,0,,,0,
200415005,,"Hollerich, Heentze Park",,49.601404,6.119940,,,0,,,0,
180801001,,"Ahn, Alphonse Steinès",,49.627420,6.423517,,,0,,,0,
180801002,,"Ahn, Op der Breck",,49.627792,6.421226,,,0,,,0,
180801003,,"Ahn, Op der Musel",,49.625629,6.422296,,,0,,,0,
160910002,,Essen,,49.778059,6.116435,,,0,,,0,
210402003,,"Lenningen, Hakenhaff",,49.604286,6.280665,,,0,,,0,
160910001,,"Mersch, Bënzert",,49.753313,6.139384,,,0,,,0,
210402004,,"Lenningen, Kaul",,49.602101,6.359132,,,0,,,0,
210402001,,"Lenningen, Am Aker",,49.600385,6.366740,,,0,,,0,
210402002,,"Lenningen, Basilika",,49.600888,6.367474,,,0,,,0,
221301007,,"Belvaux, Gemeng",,49.511212,5.930054,,,0,,,0,
200415006,,"Hollerich, Jean-Baptiste Merkels",,49.599405,6.122425,,,0,,,0,
221301008,,"Belvaux, Grenz",,49.501327,5.920713,,,0,,,0,
221301009,,"Belvaux, Henri Tudor",,49.510780,5.934820,,,0,,,0,
200415008,,"Hollerich, Nancy",,49.603409,6.118451,,,0,,,0,
220204010,,"Oberkorn, Centre Sportif",,49.514672,5.891893,,,0,,,0,
200415009,,"Hollerich, P+R Bouillon",,49.600100,6.106286,,,0,,,0,
221301003,,"Belvaux, Batting",,49.507391,5.923081,,,0,,,0,
221301004,,"Belvaux, Belval",,49.501351,5.937191,,,0,,,0,
110408001,,"Untereisenbach, Bréck",,50.000083,6.144742,,,0,,,0,
221301005,,"Belvaux, Brill",,49.508837,5.943673,,,0,,,0,
221301006,,"Belvaux-Soleuvre, Gare routière",,49.514409,5.925459,,,0,,,0,
200415011,,"Hollerich, Poincaré",,49.602274,6.116608,,,0,,,0,
150502007,,"Bigonville, Haaptstrooss",,49.851411,5.791660,,,0,,,0,
200415012,,"Hollerich, Salzhaff",,49.600029,6.117862,,,0,,,0,
150502006,,"Bigonville, Am Duerf",,49.848489,5.793008,,,0,,,0,
200415013,,"Hollerich, Schluechthaus",,49.600322,6.117318,,,0,,,0,
150502005,,"Bigonville, Réimerwee",,49.845353,5.791547,,,0,,,0,
200415014,,"Hollerich, Gare",,49.595390,6.120862,,,0,,,0,
150502004,,"Bigonville, Knupp",,49.853510,5.790143,,,0,,,0,
150502003,,"Bigonville, Kimm",,49.838354,5.783761,,,0,,,0,
200415016,,"Hollerich, AVL Portal",,49.599119,6.105527,,,0,,,0,
150502002,,"Bigonville, Kéismaart",,49.848596,5.792653,,,0,,,0,
150502001,,"Bigonville, Huelgaass",,49.851048,5.793493,,,0,,,0,
190202003,,"Fingig, Maerchen",,49.602817,5.909115,,,0,,,0,
190202002,,"Fingig, Dillesbierg",,49.600867,5.901154,,,0,,,0,
200415017,,"Hollerich, Kierfecht",,49.599603,6.111949,,,0,,,0,
200415019,,"Hollerich, Jean-Baptiste Merkels",,49.598897,6.120074,,,0,,,0,
221301022,,"Belvaux, Uewerkuererstrooss",,49.514392,5.921439,,,0,,,0,
221301023,,"Belval (Lycée), Gare",,49.501502,5.934709,,,0,,,0,
221301024,,"Belvaux, Wenschel",,49.504814,5.921917,,,0,,,0,
190300503,,"Bettange-sur-Mess, Spillplaz",,49.574330,5.985333,,,0,,,0,
141301004,,"Schieren, Neie Wee",,49.828135,6.096351,,,0,,,0,
141301005,,"Schieren, Uewerschieren",,49.827771,6.096206,,,0,,,0,
141301002,,"Schieren, Faubourg",,49.833759,6.097488,,,0,,,0,
221301020,,"Belvaux, Stadium",,49.506802,5.928658,,,0,,,0,
141301003,,"Schieren, Gare",,49.829798,6.095222,,,0,,,0,
221104001,,"Livange, Am Duerf",,49.529959,6.119803,,,0,,,0,
221104002,,"Livange, Geespelt",,49.533278,6.124819,,,0,,,0,
141301008,,"Schieren, rue de la Gare",,49.833053,6.095514,,,0,,,0,
141301009,,"Schieren, Aalen Atelier",,49.830015,6.095654,,,0,,,0,
141301006,,"Schieren, Vali's Plaz",,49.832997,6.097617,,,0,,,0,
141301007,,"Schieren, Porte de Schieren",,49.824650,6.095878,,,0,,,0,
160909002,,"Schoenfels, Schlass",,49.719185,6.091522,,,0,,,0,
221301026,,"Belvaux, Lycée Bel-Val",,49.502991,5.937932,,,0,,,0,
160909001,,"Schoenfels, Duerf",,49.717725,6.090000,,,0,,,0,
221301027,,"Belval, Um Bedding",,49.502886,5.943146,,,0,,,0,
221301028,,"Belvaux, Ënnert Zolwerwee",,49.513057,5.931458,,,0,,,0,
221301010,,"Belvaux-Soleuvre, Gare",,49.515145,5.926076,,,0,,,0,
221301011,,"Belvaux, Boulodrome",,49.513531,5.946973,,,0,,,0,
221301012,,"Belvaux, Milliounelach",,49.504521,5.930846,,,0,,,0,
221301013,,"Belvaux, Paquebierg",,49.515735,5.935049,,,0,,,0,
120305001,,"Knaphoscheid, Kleinhoscheid",,50.018627,5.966297,,,0,,,0,
150101001,,"Beckerich, Bei Schmatten",,49.730190,5.883553,,,0,,,0,
180502001,,"Beidweiler, Am Duerf",,49.728201,6.301444,,,0,,,0,
150101003,,"Beckerich, Kiircheplaz",,49.732170,5.884897,,,0,,,0,
180502002,,"Beidweiler, Op der Gare",,49.732277,6.302245,,,0,,,0,
150101002,,"Beckerich, Fraiheetsbam",,49.727998,5.891021,,,0,,,0,
221301018,,"Belvaux, Roudewee Schoul",,49.512637,5.941723,,,0,,,0,
170405005,,Colbette,,49.768840,6.303923,,,0,,,0,
221301019,,"Belval (Lycée), Gare routière",,49.501746,5.934100,,,0,,,0,
170405003,,Mechelshaff,,49.775125,6.381795,,,0,,,0,
170405004,,Rosswinklerhaff,,49.769884,6.372439,,,0,,,0,
221301014,,"Belvaux, Gemeng/Post",,49.510288,5.928481,,,0,,,0,
170405001,,Jemenerhaff,,49.773589,6.299270,,,0,,,0,
221301015,,"Belvaux, Postschoul",,49.508389,5.925049,,,0,,,0,
140401020,,"Diekirch, Hannert der Seitert",,49.874723,6.133813,,,0,,,0,
221301016,,"Belvaux, Roudewee",,49.510286,5.938913,,,0,,,0,
140401021,,"Diekirch, Fitness",,49.877177,6.135185,,,0,,,0,
221301017,,"Belvaux, Metzerlach",,49.513734,5.947831,,,0,,,0,
200505005,,"Oberanven, Rue Schetzel",,49.659309,6.239321,,,0,,,0,
200505004,,"Oberanven, rue d'Ernster",,49.661632,6.239383,,,0,,,0,
200505003,,"Oberanven, Routstrach",,49.658178,6.248489,,,0,,,0,
200505002,,"Oberanven, Gemeng",,49.659007,6.242858,,,0,,,0,
200505001,,"Oberanven, Fielsenhaus",,49.657547,6.243910,,,0,,,0,
140401019,,"Diekirch, Selzesland",,49.871324,6.131301,,,0,,,0,
150801001,,"Everlange, Beim Engel",,49.775506,5.953162,,,0,,,0,
110809001,,"Hachiville, Duärrefstrooss",,50.107796,5.923244,,,0,,,0,
110809002,,"Hachiville, Kräizung",,50.104676,5.923304,,,0,,,0,
140401011,,"Diekirch, Alexis Heck",,49.868224,6.162160,,,0,,,0,
140401012,,"Diekirch, Fielserstrooss",,49.863684,6.162997,,,0,,,0,
210701011,,"Remich, Piscine",,49.539588,6.364329,,,0,,,0,
210701012,,"Remich, Pl. Nico Klopp",,49.546651,6.361626,,,0,,,0,
140401015,,"Diekirch, Lindab Buildings S.A.",,49.861597,6.143956,,,0,,,0,
210701014,,"Remich, Route de Luxembourg",,49.546425,6.357228,,,0,,,0,
140401016,,"Diekirch, Beim Waasserbaseng",,49.860699,6.163812,,,0,,,0,
210701015,,"Remich, rue de la Corniche",,49.553676,6.377371,,,0,,,0,
140401017,,"Diekirch, Bei der Tirelbaach",,49.864455,6.174656,,,0,,,0,
210701016,,"Remich, Station Viti-Vinicole",,49.543618,6.357241,,,0,,,0,
140401018,,"Diekirch, Gare",,49.864733,6.154070,,,0,,,0,
210701017,,"Remich, Op der Kopp",,49.547279,6.355633,,,0,,,0,
140401010,,"Diekirch, Place des Récollets",,49.870191,6.158732,,,0,,,0,
150305002,,"Roodt/Redange, Beim Pull",,49.797679,5.820859,,,0,,,0,
150305001,,"Roodt/Redange, Schoul",,49.794055,5.820596,,,0,,,0,
121008001,,"Sonlez, Koschter",,49.964323,5.826120,,,0,,,0,
110605001,,"Huldange, Eglise",,50.163628,6.014244,,,0,,,0,
110605002,,"Huldange, Grotte",,50.160870,6.010201,,,0,,,0,
140401008,,"Diekirch, Lorentzwues",,49.860235,6.145665,,,0,,,0,
110605003,,"Huldange, Groussefeld",,50.165729,6.018973,,,0,,,0,
140401009,,"Diekirch, Neie Kolleisch",,49.864793,6.168248,,,0,,,0,
110605004,,"Huldange, Helzt",,50.159667,6.003667,,,0,,,0,
210701008,,"Remich, Maatebierg",,49.548801,6.375821,,,0,,,0,
110605005,,"Huldange, Lenglerlooch",,50.165725,6.025822,,,0,,,0,
110605006,,"Huldange, Schmëtt",,50.180416,6.024461,,,0,,,0,
200301001,,"Alzingen, Gässel",,49.567842,6.163788,,,0,,,0,
110605007,,"Huldange, Scierie",,50.170523,6.024894,,,0,,,0,
110605008,,"Huldange, Maison Knauf",,50.161300,6.027973,,,0,,,0,
200301005,,"Alzingen, Hondsbréck",,49.565024,6.162236,,,0,,,0,2
140401001,,"Diekirch, Altersheem",,49.866719,6.159465,,,0,,,0,
170802001,,"Haller, Beim Basseng",,49.815068,6.283030,,,0,,,0,
200301004,,"Alzingen, Réiserwee",,49.563119,6.163411,,,0,,,0,
170802002,,"Haller, Schoul",,49.820135,6.282732,,,0,,,0,
200301003,,"Alzingen, Trapeneck",,49.567838,6.161049,,,0,,,0,
210701001,,"Remich, Belvédère",,49.550739,6.376395,,,0,,,0,
140401003,,"Diekirch, Dräi Braken",,49.879851,6.150967,,,0,,,0,
170802003,,"Haller, Rue des Romains",,49.819939,6.281311,,,0,,,0,
200301002,,"Alzingen, Hondsbréck",,49.564559,6.162360,,,0,,,0,
140401004,,"Diekirch, Gare routière",,49.864488,6.152860,,,0,,,0,
210701003,,"Remich, Caves St. Martin",,49.553350,6.380472,,,0,,,0,
140401005,,"Diekirch, An der Kléck",,49.868736,6.172068,,,0,,,0,
140401006,,"Diekirch, Kluuster",,49.869546,6.158088,,,0,,,0,
140401007,,"Diekirch, rue Merten",,49.864814,6.167259,,,0,,,0,
180101001,,Banzelt,,49.672963,6.329317,,,0,,,0,
210701006,,"Remich, Gare routière",,49.542737,6.368293,,,0,,,0,
140306002,,"Lipperscheid, Beim Leweck",,49.922876,6.093223,,,0,,,0,
140306001,,"Lipperscheid, Ale Kiirfecht",,49.917996,6.084809,,,0,,,0,
220802010,,"Foetz, Rond Point",,49.525250,6.004581,,,0,,,0,
180203001,,"Boudlerbach, Boudlerbaach",,49.717543,6.353358,,,0,,,0,
110601003,,"Bellain, Gare",,50.151103,5.978343,,,0,,,0,
110601002,,"Basbellain, Wilmes",,50.141626,5.984064,,,0,,,0,
110601001,,"Basbellain, Eglise",,50.145008,5.982297,,,0,,,0,
160501001,,"Heffingen, Al Gemeng",,49.769427,6.240276,,,0,,,0,
160501002,,"Heffingen, Centre",,49.770400,6.239929,,,0,,,0,
190607001,,Direndall,,49.688432,6.089615,,,0,,,0,
160501003,,"Heffingen, Rue de Christnach",,49.770926,6.244635,,,0,,,0,
170704005,,"Rosport, Source",,49.811345,6.494152,,,0,,,0,
160501004,,"Heffingen, Thommes",,49.763258,6.241501,,,0,,,0,
170704006,,"Rosport, Rue Neuve",,49.803541,6.506439,,,0,,,0,
160501005,,"Heffingen, Soup",,49.767222,6.230040,,,0,,,0,
170704007,,"Rosport, Gemeng",,49.804048,6.498671,,,0,,,0,
160501006,,"Heffingen, Abri (Centre)",,49.770296,6.239712,,,0,,,0,
170704001,,"Rosport, Camping",,49.808594,6.502551,,,0,,,0,
170704002,,"Rosport, Centr.Electrique",,49.793327,6.507116,,,0,,,0,
170704003,,"Rosport, Lokal",,49.804470,6.503639,,,0,,,0,
141002001,,"Savelborn, Halerstrooss",,49.811715,6.254524,,,0,,,0,
220601020,,"Kayl, Sportshal",,49.480285,6.037083,,,0,,,0,
220601021,,"Kayl, Brill",,49.485452,6.044560,,,0,,,0,
201103002,,"Weiler-la-Tour, Gëltz",,49.542009,6.199433,,,0,,,0,
201103001,,"Weiler-la-Tour, Camping",,49.547560,6.173936,,,0,,,0,
201103004,,"Weiler-la-Tour, Schlammestee",,49.533913,6.180198,,,0,,,0,
201103003,,"Weiler-la-Tour, Huehlgaass",,49.539492,6.194296,,,0,,,0,
191004001,,Leesbach,,49.701668,5.985653,,,0,,,0,
150510001,,"Haut-Martelange, Gare",,49.832751,5.742323,,,0,,,0,
201103005,,"Weiler-la-Tour, Pekebierg",,49.546274,6.203184,,,0,,,0,
150510002,,"Haut-Martelange, Leekoll",,49.825170,5.752679,,,0,,,0,
170401001,,Breidweiler (Präitler),,49.777322,6.302730,,,0,,,0,
120403004,,"Dahl, Waassertuurm",,49.935444,5.969255,,,0,,,0,
120403003,,"Dahl, Al Molkerei",,49.934388,5.975357,,,0,,,0,
120403002,,"Dahl, Masselerstrooss",,49.934641,5.978477,,,0,,,0,
120403001,,"Dahl, Ale Wee",,49.935618,5.975600,,,0,,,0,
170602001,,"Boursdorf, Am Duerf",,49.764171,6.478004,,,0,,,0,
190304002,,"Sprinkange, Place de l'Eglise",,49.580687,5.963854,,,0,,,0,
220601014,,"Kayl, Eecherwee",,49.482535,6.043078,,,0,,,0,
220601015,,"Kayl, Gare",,49.485737,6.035331,,,0,,,0,
220601017,,"Kayl, Police",,49.487461,6.036235,,,0,,,0,
220601010,,"Kayl, Bréck",,49.487220,6.034924,,,0,,,0,
220601011,,"Kayl, Broucherbierg",,49.495649,6.035934,,,0,,,0,
220601012,,"Kayl, Cité Berens",,49.481289,6.042905,,,0,,,0,
190304003,,"Sprinkange, Um Kierker",,49.585229,5.965537,,,0,,,0,
220601013,,"Kayl, Diddelengerstrooss",,49.485057,6.050590,,,0,,,0,
200407014,,"Cessange, Am Brill",,49.588172,6.099146,,,0,,,0,
200407012,,"Cessange, Tubishaff",,49.585850,6.107019,,,0,,,0,
120706001,,"Mecher, Kapell",,49.922791,5.873288,,,0,,,0,
220601018,,"Kayl, Rue de Noertzange",,49.496074,6.049389,,,0,,,0,
170102001,,Dillingen Déiljen,,49.852430,6.319767,,,0,,,0,
200407011,,"Cessange, Rue Verte",,49.589672,6.115234,,,0,,,0,
200407010,,"Cessange, Rue de Leudelange",,49.582008,6.097311,,,0,,,0,
110802003,,"Asselborn, Seeërei",,50.098532,5.971515,,,0,,,0,
220802008,,"Foetz, Armschlag",,49.532518,6.016715,,,0,,,0,
110802002,,"Asselborn, Uäwwelaanst",,50.097250,5.971330,,,0,,,0,
220802009,,"Foetz, Wacquant",,49.524987,6.005550,,,0,,,0,
110802005,,"Asselborn, Legaye",,50.110952,5.982425,,,0,,,0,
220802004,,"Foetz, Am Butterbrill",,49.522167,6.009247,,,0,,,0,
110802006,,"Asselborn, Elwenter Weeg",,50.099989,5.973898,,,0,,,0,
220802005,,"Foetz, Feitzerhaff",,49.528352,6.010417,,,0,,,0,
120101005,,"Surré, Montée St. Hubert",,49.900020,5.773838,,,0,,,0,
120101004,,"Boulaide, Post",,49.887384,5.815619,,,0,,,0,
220802003,,"Foetz, Am Brill",,49.521155,6.010787,,,0,,,0,
120101003,,"Boulaide, Camping",,49.890597,5.815658,,,0,,,0,
200305003,,"Itzig, An den Espen",,49.586339,6.167461,,,0,,,0,
200305002,,"Itzig, Am Kiemert",,49.582106,6.166918,,,0,,,0,
220601004,,"Kayl, Arbed'shaff",,49.476268,6.006522,,,0,,,0,
200305005,,"Itzig, Hubertuspad",,49.587269,6.169815,,,0,,,0,
220601005,,"Kayl, Barrière",,49.492803,6.036879,,,0,,,0,
200305004,,"Itzig, Dellbierg",,49.588983,6.171113,,,0,,,0,
200407009,,"Cessange, Kuelebierg",,49.588241,6.111250,,,0,,,0,
200305001,,"Itzig, Am Horra",,49.585378,6.177853,,,0,,,0,
110802001,,"Asselborn, Burregaass",,50.096650,5.973857,,,0,,,0,
220601001,,"Kayl, abri P.&Ch.",,49.491834,6.046813,,,0,,,0,
220601002,,"Kayl, Am Pull",,49.489183,6.038838,,,0,,,0,
220102032,,"Bettembourg, Scheleck",,49.509047,6.093428,,,0,,,0,
200407004,,"Cessange, Barrès",,49.595866,6.115754,,,0,,,0,
220102033,,"Bettembourg, Cactus",,49.512905,6.093005,,,0,,,0,
200407003,,"Cessange, Artisans",,49.594470,6.109927,,,0,,,0,
130107003,,"Weiler/Putscheid, Gemengebau",,49.962103,6.124385,,,0,,,0,
200407002,,"Cessange, Antoine",,49.584018,6.100305,,,0,,,0,
130107002,,"Weiler/Wincrange, Duärrefstrooss",,50.104164,5.943395,,,0,,,0,
200407001,,"Cessange, Am Eck",,49.585792,6.099301,,,0,,,0,
200305007,,"Itzig, Kierch",,49.585912,6.171706,,,0,,,0,
220601007,,"Kayl, Post",,49.486700,6.041681,,,0,,,0,
200407008,,"Cessange, Kierch",,49.589127,6.106728,,,0,,,0,
200305006,,"Itzig, Kapell",,49.584520,6.169960,,,0,,,0,
200407007,,"Cessange, Fischerhaff",,49.591365,6.105599,,,0,,,0,
200305009,,"Hesperange, Um Schlass",,49.572130,6.144656,,,0,,,0,
220601009,,"Kayl, Stellwierk",,49.498171,6.036748,,,0,,,0,
200407006,,"Cessange, Duerf",,49.587128,6.103082,,,0,,,0,
200305008,,"Itzig, Klouschter",,49.585904,6.173962,,,0,,,0,
200407005,,"Cessange, Boy Konen",,49.580370,6.094033,,,0,,,0,
120101002,,"Baschleiden, Kiirch",,49.898524,5.818325,,,0,,,0,
120101001,,"Baschleiden, Elber",,49.894754,5.816345,,,0,,,0,
221006001,,"Wickrange, Rumbaach",,49.540354,6.020896,,,0,,,0,
200420015,,"Merl, St. Gengoul",,49.602654,6.094756,,,0,,,0,
200419026,,"Limpertsberg, Theater (Bus)",,49.617927,6.125584,,,0,,,0,
200420016,,"Merl, Charlemagne",,49.607819,6.098034,,,0,,,0,
200419024,,"Limpertsberg, Lefèvre",,49.622349,6.108097,,,0,,,0,
200419025,,"Limpertsberg, Lycée de Garçons",,49.620062,6.122827,,,0,,,0,
200420011,,"Merl, Orval",,49.605836,6.102527,,,0,,,0,
200420012,,"Merl, Parc",,49.607456,6.110114,,,0,,,0,
200420013,,"Merl, Plak",,49.603038,6.089251,,,0,,,0,
200419028,,"Limpertsberg, N.S. Pierret",,49.620703,6.118566,,,0,,,0,
200420014,,"Merl, St.Hubert",,49.603996,6.093001,,,0,,,0,
200419029,,"Limpertsberg, Neumans-Park",,49.620898,6.107629,,,0,,,0,
220102007,,"Bettembourg, Mosselter",,49.506139,6.126080,,,0,,,0,
220102008,,"Bettembourg, Parc Merveilleux",,49.509349,6.118790,,,0,,,0,
220102009,,"Bettembourg, Peppenger Schleid",,49.520052,6.114678,,,0,,,0,
220102003,,"Bettembourg, Am Dräieck",,49.519594,6.109661,,,0,,,0,
200419022,,"Limpertsberg, Lycée Michel Lucius",,49.624397,6.114803,,,0,,,0,
220102004,,"Bettembourg, Café du Stadion",,49.513235,6.110105,,,0,,,0,
200419023,,"Limpertsberg, Léandre Lacroix",,49.622180,6.114671,,,0,,,0,
220102005,,"Bettembourg, Gare routière",,49.516534,6.102076,,,0,,,0,
200419020,,"Luxembourg, Uni Campus Limpertsberg",,49.620962,6.114507,,,0,,,0,
220102006,,"Bettembourg, Kiircheplaz",,49.518319,6.097576,,,0,,,0,
200419021,,"Limpertsberg, L.T.C.",,49.624784,6.115168,,,0,,,0,
220102001,,"Bettembourg, 12 Gargullen",,49.525706,6.100815,,,0,,,0,
220102002,,"Bettembourg, Al Gemeng",,49.519991,6.100033,,,0,,,0,
120903008,,"Wiltz, Pompjeesbau",,49.965008,5.925976,,,0,,,0,
120903007,,"Weidingen, Erpeldangerstrooss",,49.976419,5.942449,,,0,,,0,
120903006,,"Wiltz, Brandbau",,49.962495,5.934671,,,0,,,0,
120903005,,"Wiltz, Belle Vue",,49.963394,5.937738,,,0,,,0,
201001001,,"Bereldange, Elterstrachen",,49.660949,6.125987,,,0,,,0,
120903003,,"Wiltz, Batzendelt",,49.957628,5.934702,,,0,,,0,
120903002,,"Wiltz, Aneschbaach",,49.968282,5.921890,,,0,,,0,
200420010,,"Merl, Op der Millen",,49.603451,6.084963,,,0,,,0,
120903001,,"Wiltz, Aalen Tipp",,49.958981,5.909096,,,0,,,0,
201001004,,"Bereldange, Rue du Pont",,49.649587,6.127820,,,0,,,0,
201001003,,"Bereldange, Schoul",,49.653302,6.127435,,,0,,,0,
201001002,,"Bereldange, Police",,49.656741,6.127177,,,0,,,0,
200419037,,"Limpertsberg, Kiischtewee",,49.620831,6.127712,,,0,,,0,
200419038,,"Limpertsberg, Hall Victor Hugo",,49.620736,6.122802,,,0,,,0,
200419035,,"Limpertsberg, Waassertuerm",,49.623955,6.122349,,,0,,,0,
200419036,,"Limpertsberg, Faïencerie/INL",,49.616121,6.122077,,,0,,,0,
200419039,,"Limpertsberg, Faïencerie",,49.616038,6.121265,,,0,,,0,
220102018,,"Bettembourg, Gare",,49.516515,6.101676,,,0,,,0,
200419030,,"Limpertsberg, Parking Glacis",,49.616133,6.123641,,,0,,,0,
220102015,,"Bettembourg, Krackelshaff-IFSB",,49.508215,6.103272,,,0,,,0,
200419034,,"Limpertsberg, Square André",,49.623659,6.119140,,,0,,,0,
220102016,,"Bettembourg, Krackelshaff-MOOG",,49.507302,6.107056,,,0,,,0,
220102017,,"Bettembourg, Krackelshaff-P&T",,49.504374,6.109053,,,0,,,0,
220102010,,"Bettembourg, Place de la Paix",,49.519739,6.095018,,,0,,,0,
220102011,,"Bettembourg, Rousegärtchen",,49.520136,6.091485,,,0,,,0,
170204001,,Hersberg/Heeschbreg,,49.755851,6.327666,,,0,,,0,
220102012,,"Bettembourg, Route d'Abweiler",,49.525368,6.087373,,,0,,,0,
220102013,,"Bettembourg, Fankenacker",,49.528464,6.101730,,,0,,,0,
180703009,,"Wasserbillig, Gare",,49.712952,6.499305,,,0,,,0,
180703006,,"Wasserbillig, Rue des Celtes",,49.717693,6.497646,,,0,,,0,
180703005,,"Wasserbillig, Op der Bréck",,49.714388,6.505848,,,0,,,0,
180703008,,"Wasserbillig, Mesenich Frontière",,49.725731,6.490780,,,0,,,0,
180703007,,"Wasserbillig, Rue des Roses",,49.715018,6.495841,,,0,,,0,
180703002,,"Wasserbillig, Cimetière",,49.717666,6.499742,,,0,,,0,
180703001,,"Wasserbillig, Centre",,49.715493,6.500756,,,0,,,0,
180703004,,"Wasserbillig, Marais",,49.711355,6.494087,,,0,,,0,
180703003,,"Wasserbillig, Gare routière",,49.713103,6.499241,,,0,,,0,
200419004,,"Limpertsberg, Allée Scheffer",,49.618203,6.124045,,,0,,,0,
200419005,,"Limpertsberg, Arts et Métiers",,49.621760,6.126688,,,0,,,0,
210803006,,"Stadtbredimus, Wandmillen",,49.562668,6.372422,,,0,,,0,
200419002,,"Limpertsberg, Alen Tramsschapp",,49.621977,6.120610,,,0,,,0,
200419003,,"Limpertsberg, Alfred de Musset",,49.618935,6.122008,,,0,,,0,
210803004,,"Stadtbredimus, Schoul",,49.563703,6.363362,,,0,,,0,
200419008,,"Limpertsberg, Batty Weber",,49.622376,6.116764,,,0,,,0,
210803005,,"Stadtbredimus, Vinsmoselle",,49.564311,6.368751,,,0,,,0,
200419009,,"Limpertsberg, Bd.P. Eyschen",,49.619361,6.126815,,,0,,,0,
210803002,,"Stadtbredimus, Kreizgaass",,49.563716,6.364330,,,0,,,0,
140503003,,"Stegen, Kreiz",,49.829534,6.173285,,,0,,,0,
110102003,,"Lentzweiler, Op der Sang",,50.063589,5.983528,,,0,,,0,
210803003,,"Stadtbredimus, Schleis",,49.566816,6.362586,,,0,,,0,
200419007,,"Limpertsberg, Avenir",,49.625449,6.120197,,,0,,,0,
140503001,,"Stegen, Bloen Eck",,49.827794,6.177906,,,0,,,0,
210803001,,"Stadtbredimus, Dicksstrooss",,49.562352,6.358968,,,0,,,0,
140503002,,"Stegen, Eglise",,49.828877,6.168846,,,0,,,0,
180506001,,"Eschweiler/Junglinster, Bei der Kiirch",,49.717206,6.310254,,,0,,,0,
200419001,,"Limpertsberg, Alen Eecher Bierg",,49.621855,6.129452,,,0,,,0,
120903029,,"Wiltz, Schoulbierg",,49.967604,5.931585,,,0,,,0,
110102002,,"Eselborn, Neidierfchen",,50.059664,6.003184,,,0,,,0,
120903025,,"Wiltz, Wanselerstro./ADEM",,49.963443,5.918531,,,0,,,0,
110102001,,"Eselborn, Dueref",,50.062608,6.001910,,,0,,,0,
120903023,,"Wiltz, Lycée du Nord",,49.963309,5.924327,,,0,,,0,
120903021,,"Wiltz, Lann",,49.968092,5.930647,,,0,,,0,
120903020,,"Wiltz, Gare",,49.966369,5.927075,,,0,,,0,
110404001,,Kounenhaff,,50.016770,6.136297,,,0,,,0,
200420004,,"Merl, Conservatoire",,49.602262,6.105659,,,0,,,0,
200419015,,"Luxembourg, Siggy vu Lëtzebuerg",,49.626164,6.114948,,,0,,,0,
200420005,,"Merl, Geesseknäppchen (N)",,49.603610,6.108486,,,0,,,0,
200420006,,"Merl, Geesseknäppchen (S)",,49.601720,6.113485,,,0,,,0,
200419013,,"Limpertsberg, Crispinus",,49.619347,6.130236,,,0,,,0,
130202002,,"Bettel, Schmedd",,49.917048,6.225764,,,0,,,0,
200420007,,"Merl, Kiirfecht",,49.609816,6.099092,,,0,,,0,
200419014,,"Limpertsberg, Ermesinde",,49.619180,6.117008,,,0,,,0,
200419019,,"Limpertsberg, Henri VII",,49.617913,6.119257,,,0,,,0,
200420001,,"Merl, Athénée",,49.604965,6.111216,,,0,,,0,
130202001,,"Bettel, Bei der Bréck",,49.920786,6.224853,,,0,,,0,
200420002,,"Merl, Barrière",,49.602257,6.097202,,,0,,,0,
160603001,,"Heffingen, Scherfemillen",,49.782259,6.231738,,,0,,,0,
200420003,,"Merl, Celtes",,49.601643,6.094608,,,0,,,0,
200419018,,"Limpertsberg, Guillaume Schneider",,49.620546,6.124170,,,0,,,0,
200420008,,"Merl, Laang Heck",,49.605426,6.098038,,,0,,,0,
200419011,,"Limpertsberg, Bois",,49.622612,6.122982,,,0,,,0,
200420009,,"Merl, Marcel Cahen",,49.601827,6.101214,,,0,,,0,
200419012,,"Limpertsberg, Jean Soupert",,49.622033,6.112035,,,0,,,0,
200419010,,"Limpertsberg, Belle-Vue",,49.623032,6.127555,,,0,,,0,
120903019,,"Wiltz, Bastnacherstrooss",,49.959240,5.933037,,,0,,,0,
120903018,,"Wiltz, Gare routière",,49.966307,5.927121,,,0,,,0,
120903011,,"Wiltz, Clinique",,49.965098,5.934450,,,0,,,0,
120903010,,"Wiltz, Follmillen",,49.962446,5.915903,,,0,,,0,
210201002,,"Burmerange, Résidence Stoffels",,49.484650,6.324088,,,0,,,0,
210201003,,"Burmerange, Um Schotz",,49.487485,6.319901,,,0,,,0,
180510001,,"Imbringen, Am Duerf",,49.701239,6.193627,,,0,,,0,
900000011,,"Gasperich, prov. Cloche d'Or",,49.583277,6.117106,,,0,,,0,4
900000010,,"Clervaux, Gare ferroviaire",,50.061649,6.024400,,,0,,,0,
210201001,,"Burmerange, Bei der Kiirch",,49.486197,6.322125,,,0,,,0,
200101008,,"Bertrange, Gemeng",,49.610579,6.050286,,,0,,,0,
200101009,,"Bertrange, Gaston Thorn / LJBM",,49.621076,6.036828,,,0,,,0,
180601002,,"Berbourg, Kiirch",,49.731355,6.394381,,,0,,,0,
180601001,,"Berbourg, Schoulstrooss",,49.734232,6.393491,,,0,,,0,
200101002,,"Bertrange, Belle Etoile",,49.621820,6.048706,,,0,,,0,
180509001,,"Graulinster, Am Duerf",,49.740707,6.287271,,,0,,,0,
180509002,,"Graulinster, Haaptstrooss",,49.739057,6.287890,,,0,,,0,
200101006,,"Bertrange, Fleuri",,49.605159,6.075988,,,0,,,0,
200101007,,"Bertrange, Gare routière",,49.613042,6.060798,,,0,,,0,
200101004,,"Bertrange, Dicks",,49.604736,6.052244,,,0,,,0,
150105003,,"Levelange, Kapell",,49.739313,5.855634,,,0,,,0,
150105002,,"Levelange, Kalek",,49.731727,5.870490,,,0,,,0,
160206001,,Openthalt,,49.751058,6.035450,,,0,,,0,
150105001,,"Levelange, Ellerstrooss",,49.743068,5.852115,,,0,,,0,
200501001,,Aéroport Luxembourg/Findel,,49.634856,6.215605,,,0,,,0,
200101019,,"Bertrange, Waassertuerm",,49.620778,6.048036,,,0,,,0,
200501003,,"Findel, Cargo Center",,49.638278,6.232241,,,0,,,0,
200101014,,"Bertrange, Richterwee",,49.607313,6.070114,,,0,,,0,
200101011,,"Bertrange, Millewee",,49.617865,6.048101,,,0,,,0,
200101012,,"Bertrange, Montereale",,49.609839,6.063995,,,0,,,0,
200101017,,"Bertrange, Rue de Mamer",,49.615789,6.048573,,,0,,,0,
150805002,,"Everlange, Everléngermillen",,49.777329,5.938016,,,0,,,0,
110106001,,"Mecher, Dueref",,50.040018,6.015807,,,0,,,0,
200101010,,"Bertrange, Kierfecht",,49.611928,6.058387,,,0,,,0,
200501004,,Findel,,49.629165,6.204587,,,0,,,0,
110609001,,Biwisch,,50.116976,5.979528,,,0,,,0,
121004001,,"Gruemelscheid, Hoboesch",,49.985463,5.873409,,,0,,,0,
200101024,,"Bertrange, Gare",,49.613095,6.059369,,,0,,,0,
200101022,,"Bertrange, Pesch",,49.617660,6.053486,,,0,,,0,
150301001,,"Colpach-Bas, Schlass",,49.757823,5.826426,,,0,,,0,
210603001,,"Wintrange, Dorefplaz",,49.501354,6.351756,,,0,,,0,
200101021,,"Bertrange, Ecole Européenne II",,49.617732,6.037987,,,0,,,0,
120709001,,Watrange,,49.943443,5.785685,,,0,,,0,
190403003,,"Hivange, Kleng Béiwéng",,49.603725,5.926638,,,0,,,0,
190403001,,"Hivange, Areler Strooss",,49.604934,5.924389,,,0,,,0,
200801002,,"Steinsel, Bourgaass",,49.677569,6.121790,,,0,,,0,
200801001,,Müllendorf/Mëlleref,,49.679060,6.129674,,,0,,,0,
200423007,,"Pfaffenthal, Halte CFL",,49.618986,6.132390,,,0,,,0,
200423004,,"Pfaffenthal, Um Bock",,49.611658,6.135091,,,0,,,0,
200801005,,"Steinsel, Michel Rodange Plaz",,49.677001,6.124666,,,0,,,0,
200423003,,"Pfaffenthal, Théiwesbuer",,49.615839,6.132824,,,0,,,0,
200801004,,"Steinsel, Laval",,49.669554,6.119685,,,0,,,0,
200801003,,"Steinsel, Gonneschhaff",,49.671629,6.120269,,,0,,,0,
200423005,,"Pfaffenthal, Vauban",,49.613960,6.135413,,,0,,,0,
120505001,,Merscheid/Heiderscheid,,49.870173,5.968154,,,0,,,0,
140302001,,"Dirbach, Bifurcation",,49.921024,6.030828,,,0,,,0,
140302002,,"Dirbach, Village",,49.920381,6.033111,,,0,,,0,
200801009,,"Steinsel, Zone Industrielle",,49.669733,6.127576,,,0,,,0,
200801008,,"Steinsel, Um Gruef",,49.675287,6.122299,,,0,,,0,
200423002,,"Pfaffenthal, Stade G. Diderich",,49.621710,6.131565,,,0,,,0,
200801007,,"Steinsel, Schoul",,49.678018,6.123940,,,0,,,0,
200423001,,"Pfaffenthal, Sichenhaff",,49.620079,6.132561,,,0,,,0,
200801013,,"Steinsel, Rue de la Forêt",,49.677481,6.121865,,,0,,,0,
400000092,,"Thionville, Foch Kiosque",,49.359699,6.162770,,,0,,,0,
200801012,,"Mullendorf, Op der Muschel",,49.682756,6.129609,,,0,,,0,
200801011,,"Steinsel, Kennedy",,49.670512,6.124910,,,0,,,0,
400000093,,"Thionville, Gare",,49.353891,6.169178,,,0,,,0,
400000090,,"Thionville, Porte Saarlouis",,49.353023,6.176361,,,0,,,0,
180305001,,"Niederdonven, Beim Festsall",,49.636030,6.404627,,,0,,,0,
180305002,,"Niederdonven, Beim Schmatt",,49.635591,6.409138,,,0,,,0,
180305003,,"Niederdonven, Bei der Kappell",,49.634176,6.402592,,,0,,,0,
180305004,,"Niederdonven, Op der Bréck",,49.638453,6.405578,,,0,,,0,
400000099,,"Audun-le-Tiche, Mairie",,49.472467,5.957122,,,0,,,0,
400000096,,"Beyren-lès-Sierck, Église",,49.469977,6.287450,,,0,,,0,
400000095,,"Volmerange-les-Mines, Gare",,49.456918,6.079028,,,0,,,0,
110814001,,"Niederwampach, A Beetel",,50.009600,5.839874,,,0,,,0,
400000081,,"Saulnes, Les Pierrettes",,49.526315,5.810990,,,0,,,0,
400000080,,"Saulnes, Place",,49.531257,5.822196,,,0,,,0,
400000083,,"Sentzich, Cimetière",,49.419768,6.260005,,,0,,,0,
400000082,,"Saulnes, Salvador Allende",,49.527517,5.814464,,,0,,,0,
130205001,,"Landscheid, Kiirch",,49.923995,6.128369,,,0,,,0,
200411001,,"Findel, Business Center",,49.624044,6.193732,,,0,,,0,
120801001,,"Insenborn, Duerf",,49.900745,5.884464,,,0,,,0,
400000088,,"St. Charles, Rhin",,49.510386,5.801401,,,0,,,0,
150702002,,"Ehner, Krier",,49.717533,5.950786,,,0,,,0,
150702001,,"Ehner, Kapell",,49.717154,5.948021,,,0,,,0,
400000087,,"St. Charles, Eglise",,49.510551,5.805743,,,0,,,0,
400000086,,"St. Charles, Château d'Eau",,49.509219,5.804420,,,0,,,0,
200202001,,"Medingen, Aire de virage",,49.573640,6.253055,,,0,,,0,
150509001,,"Koetschette, Rond-Point",,49.838533,5.838626,,,0,,,0,
160804001,,"Helmdange, Fautelfiels",,49.694200,6.140903,,,0,,,0,
400000078,,"Saulnes, Allée des Roses",,49.524954,5.807665,,,0,,,0,
400000077,,"Metzange, P&R Metzange",,49.362461,6.105501,,,0,,,0,
400000079,,"Saulnes, Auguste Rase",,49.529971,5.818617,,,0,,,0,
400000074,,"Rédange, Mairie",,49.492935,5.919430,,,0,,,0,
400000073,,"Rédange, Douane",,49.498870,5.917952,,,0,,,0,
400000075,,"Rédange, rue de Belvaux",,49.495239,5.918429,,,0,,,0,
200202002,,Medingen,,49.575206,6.248913,,,0,,,0,
160902003,,"Mersch, Lohr",,49.749253,6.113160,,,0,,,0,
120501002,,"Eschdorf, Mairie",,49.884550,5.936356,,,0,,,0,
160902002,,"Rollingen, Fielserstrooss",,49.748255,6.113191,,,0,,,0,
120501001,,"Eschdorf, An der Driicht",,49.882587,5.939377,,,0,,,0,
160902001,,"Rollingen, Blannenheem",,49.744525,6.112969,,,0,,,0,
400000061,,"Mt.St.Martin, Hôpital",,49.537715,5.782128,,,0,,,0,
201005001,,Stafelter,,49.658935,6.174610,,,0,,,0,
400000060,,"Mt.St.Martin, Foch",,49.542605,5.779055,,,0,,,0,
190103001,,"Linger, Schoul",,49.565317,5.886283,,,0,,,0,
120604002,,"Merkholtz, Dellewee",,49.962919,5.979983,,,0,,,0,
190103003,,"Linger, Velo's Piste",,49.562826,5.880646,,,0,,,0,
120604001,,"Merkholtz, Gare",,49.956834,5.981563,,,0,,,0,
120501003,,"Eschdorf, Quatre Vents",,49.881358,5.941877,,,0,,,0,
120604004,,"Merkholtz, Duerfstrooss",,49.961661,5.980020,,,0,,,0,
400000067,,"Ottange, Transformateur",,49.448433,6.024709,,,0,,,0,
400000066,,"Ottange, Pl. de Montcontour",,49.441895,6.021656,,,0,,,0,
400000069,,"Manom, Centre Commercial",,49.378987,6.170436,,,0,,,0,
400000063,,"Mt.St.Martin, Résistance",,49.540774,5.777295,,,0,,,0,
400000062,,"Mt.St.Martin, Nancy",,49.540751,5.785841,,,0,,,0,
400000065,,"Hettange Grande, Cité des Jardins",,49.399541,6.161135,,,0,,,0,
400000050,,"Mexy, Ecole",,49.501241,5.778900,,,0,,,0,
151004001,,Heispelt,,49.854929,5.881903,,,0,,,0,
110303001,,"Heinerscheid, Bei Dikches",,50.091828,6.084504,,,0,,,0,
110303003,,"Heinerscheid, Geméin",,50.094662,6.086653,,,0,,,0,
110303002,,"Heinerscheid, Bei Millisch",,50.098740,6.086433,,,0,,,0,
180301001,,"Beyren, An der Fuert",,49.632902,6.333545,,,0,,,0,
180301002,,"Beyren, Op der Bréck",,49.629930,6.335730,,,0,,,0,
200705003,,"Schuttrange, Kanecherstrooss",,49.619641,6.270269,,,0,,,0,
200705004,,"Schuttrange, Kiercheplaz",,49.623712,6.267798,,,0,,,0,
200705005,,"Schuttrange, Kreizung",,49.621027,6.266093,,,0,,,0,
400000059,,"Mt.St.Martin, Eglantines",,49.536810,5.780639,,,0,,,0,
200705007,,"Schuttrange, Um Grousbuer",,49.618025,6.262398,,,0,,,0,
220401001,,"Belval (Université), Gare routière",,49.499195,5.946485,,,0,,,0,
220401002,,"Belval (Université), Gare",,49.499550,5.946283,,,0,,,0,
110401002,,"Dorscheid, Am Poul",,50.036477,6.079186,,,0,,,0,
400000056,,"Mt.St.Martin, Cité Jardins",,49.536421,5.768333,,,0,,,0,
110818001,,"Niederwampach, Haaptstrooss",,50.010608,5.847179,,,0,,,0,
110401001,,"Dorscheid, Am Duerf",,50.035526,6.071799,,,0,,,0,
110401004,,"Dorscheid, Lehmkaul",,50.040874,6.079114,,,0,,,0,
400000058,,"Mt.St.Martin, Douane",,49.553031,5.786445,,,0,,,0,
400000057,,"Mt.St.Martin, Notre Dame",,49.534451,5.765436,,,0,,,0,
400000052,,"Mexy, Lorraine",,49.499207,5.777915,,,0,,,0,
400000051,,"Mexy, La Forchette",,49.500005,5.787173,,,0,,,0,
400000054,,"Mt.St.Martin, Auchan PED",,49.542784,5.794916,,,0,,,0,
200705001,,"Schuttrange, Al-Schëtter Mëtt",,49.621893,6.273439,,,0,,,0,
120805001,,"Bonnal, Um Bommel",,49.902784,5.886018,,,0,,,0,
180804001,,"Wormeldange, Erdkaul",,49.612168,6.406864,,,0,,,0,
180804002,,"Wormeldange, Geméen",,49.608905,6.404157,,,0,,,0,
170503001,,Specksmillen,,49.802127,6.396781,,,0,,,0,
400000049,,"Mexy, Condé",,49.501103,5.783634,,,0,,,0,
400000048,,"Hettange Grande, Place Schuman",,49.403468,6.157669,,,0,,,0,
170201004,,"Altrier, Op der Schanz",,49.750160,6.327799,,,0,,,0,
400000047,,Metz-Ville,,49.109393,6.177657,,,0,,,0,
170201001,,"Altrier, Bildchen",,49.752380,6.328093,,,0,,,0,
170201002,,"Altrier, Heeschbregerwee",,49.751872,6.328329,,,0,,,0,
400000041,,"Longwy, St. Louis",,49.515718,5.774107,,,0,,,0,
400000040,,"Longwy, rue de Metz",,49.512326,5.761867,,,0,,,0,
400000043,,"Longwy, Vauban",,49.529178,5.763158,,,0,,,0,
170201005,,"Altrier, Kreizenhéicht (RN)",,49.748757,6.320823,,,0,,,0,
400000042,,"Longwy, 8 mai 45",,49.526430,5.764639,,,0,,,0,
150601001,,Eltz,,49.777453,5.893370,,,0,,,0,
180804005,,"Wormeldange, Op der Bréck",,49.612083,6.406688,,,0,,,0,
180804006,,"Wormeldange/Haut, Hiehl",,49.611670,6.398694,,,0,,,0,
180804003,,"Wormeldange, Gewân",,49.605634,6.401909,,,0,,,0,
180804004,,"Wormeldange, Kellerei",,49.614137,6.410802,,,0,,,0,
110703001,,Breidfeld,,50.123198,6.062434,,,0,,,0,
400000038,,"Longwy, Récollets",,49.517510,5.769636,,,0,,,0,
400000037,,"Longwy, Place Darche",,49.523979,5.764497,,,0,,,0,
180804007,,"Wormeldange/Haut, Körch",,49.609608,6.400230,,,0,,,0,
400000039,,"Longwy, République",,49.516709,5.762890,,,0,,,0,
400000034,,"Longwy, Lebrun Bessemer",,49.526404,5.776251,,,0,,,0,
140204001,,"Moestroff, An der Gae",,49.862965,6.243519,,,0,,,0,
400000033,,"Longwy, Lafontaine",,49.512123,5.773915,,,0,,,0,
140204002,,"Moestroff, Bréck",,49.868627,6.239898,,,0,,,0,
400000036,,"Longwy, Merlin",,49.510677,5.770460,,,0,,,0,
140204003,,"Moestroff, Wangerten",,49.871659,6.238389,,,0,,,0,
400000035,,"Longwy, Gare",,49.513375,5.769784,,,0,,,0,
140204004,,"Moestroff, Kiirch",,49.865938,6.238423,,,0,,,0,
400000030,,"Longwy, Bas/Espace Bus",,49.513687,5.768368,,,0,,,0,
160701002,,"Gosseldange, Route de Schoenfels",,49.728038,6.114558,,,0,,,0,
160701001,,"Gosseldange, Kapell",,49.726248,6.115636,,,0,,,0,
160701004,,"Gosseldange, Op der Uelzechtbréck",,49.719899,6.118981,,,0,,,0,
400000032,,"Longwy, Home City",,49.514412,5.759877,,,0,,,0,
400000031,,"Longwy, Espace Saintignon Lidl",,49.518393,5.770670,,,0,,,0,
160701003,,"Gosseldange, Vor Bell",,49.722081,6.116313,,,0,,,0,
161106002,,"Tuntange, Kiirch",,49.717701,6.008941,,,0,,,0,
110502010,,"Marnach, Schwaarzenhiwwel",,50.047239,6.073601,,,0,,,0,
161003003,,"Nommern, Weierwiss",,49.793174,6.170457,,,0,,,0,
161106001,,"Tuntange, Duerf",,49.716738,6.009639,,,0,,,0,
110502011,,"Marnach, Bombatsch",,50.057817,6.064657,,,0,,,0,
161003001,,"Nommern, Griechten",,49.797651,6.175463,,,0,,,0,
161003002,,"Nommern, Kiirch",,49.794521,6.173672,,,0,,,0,
120302001,,"Eschweiler/Wiltz, Gaass",,49.995590,5.947568,,,0,,,0,
161106004,,"Tuntange, Sëllerstrooss",,49.720162,6.003587,,,0,,,0,
161106003,,"Tuntange, Knupp",,49.716436,6.016054,,,0,,,0,
120302002,,"Eschweiler/Wiltz, Halt",,49.985822,5.959265,,,0,,,0,
161106005,,"Tuntange, Weisserchen",,49.713157,6.012731,,,0,,,0,
120302003,,"Eschweiler/Wiltz, Hielert",,49.998492,5.948096,,,0,,,0,
130104001,,"Nachtmanderscheid, Klossen",,49.948241,6.129519,,,0,,,0,
130104002,,"Nachtmanderscheid, Poul",,49.947327,6.138761,,,0,,,0,
180207004,,"Wecker, Gare routière",,49.699720,6.386962,,,0,,,0,
180207005,,"Wecker, Gare",,49.699890,6.386509,,,0,,,0,
150505001,,Flatzbour,,49.835434,5.787488,,,0,,,0,
400000027,,"Longlaville, Maison du Peuple",,49.534562,5.799490,,,0,,,0,
180207002,,"Wecker, Coboulux",,49.694099,6.383838,,,0,,,0,
200508010,,"Senningerberg, Rue des Résidences",,49.649818,6.234787,,,0,,,0,
400000026,,"Longlaville, Mairie",,49.532467,5.795328,,,0,,,0,
180207003,,"Wecker, Eglise",,49.696090,6.387559,,,0,,,0,
200508011,,"Senningerberg, Rue du Golf",,49.645095,6.221297,,,0,,,0,
400000029,,"Longwy, 11 Novembre 1918",,49.520259,5.763706,,,0,,,0,
200508012,,"Senningerberg, Lou Hemmer",,49.633013,6.210461,,,0,,,0,
400000028,,"Longlaville, Rue des Fleurs",,49.537367,5.807865,,,0,,,0,
180207001,,"Wecker, An der Schmëtt",,49.702979,6.394651,,,0,,,0,
400000023,,"Audun-le-Roman, Eglise",,49.369477,5.895141,,,0,,,0,
200508014,,"Senningerberg, Martinus",,49.649253,6.240887,,,0,,,0,
400000025,,"Longlaville, Elsa Triolet",,49.535293,5.801834,,,0,,,0,
400000024,,"Hettange-Grande, Gare SNCF",,49.407573,6.157018,,,0,,,0,
400000021,,"Herserange, St. Eloi",,49.517079,5.779987,,,0,,,0,
400000020,,"Herserange, Quatre Vents",,49.524011,5.802502,,,0,,,0,
180104001,,"Mensdorf, Ennen am Duerf",,49.654602,6.302179,,,0,,,0,
180104002,,"Mensdorf, Uewen am Duerf",,49.653439,6.305901,,,0,,,0,
180104003,,"Mensdorf, Op den Hoehlerchen",,49.658495,6.303238,,,0,,,0,
210901001,,Ersange/Ierséng,,49.576222,6.275848,,,0,,,0,
141101002,,"Mertzig, Butzebierg",,49.826886,6.011915,,,0,,,0,
141101003,,"Mertzig, Eglise",,49.831941,6.002827,,,0,,,0,
141101004,,"Mertzig, Internat",,49.834685,6.009070,,,0,,,0,
400000019,,"Herserange, Mairie",,49.518614,5.785027,,,0,,,0,
141101005,,"Mertzig, Gemeng",,49.833250,6.005765,,,0,,,0,
141101006,,"Mertzig, Wéchen",,49.829897,5.997891,,,0,,,0,
400000016,,"Herserange, Concorde",,49.523473,5.798653,,,0,,,0,
400000015,,"Hayange, Esplanade",,49.328942,6.066047,,,0,,,0,
200508001,,"Senningerberg, Autobunn",,49.639223,6.216506,,,0,,,0,
400000017,,"Herserange, La Folie",,49.520283,5.789713,,,0,,,0,
170606001,,"Mompach, Ieweschtstrooss",,49.751951,6.465878,,,0,,,0,
200508002,,"Senningerberg, Breedewues",,49.655142,6.224577,,,0,,,0,
160202002,,"Brouch/Mersch, Kloeppel",,49.738769,6.030550,,,0,,,0,
200508003,,"Senningerberg, Charlys Statioun",,49.649996,6.226089,,,0,,,0,
400000011,,"Garche, Route de Mondorf",,49.397733,6.201711,,,0,,,0,
160202001,,"Brouch/Mersch, Kiercheplaz",,49.735187,6.020331,,,0,,,0,
200508004,,"Senningerberg, Gromscheed",,49.651641,6.230887,,,0,,,0,
400000014,,"Elange-Veymerange, Stade",,49.359102,6.111125,,,0,,,0,
160202003,,"Brouch/Mersch, Kneppchen",,49.741920,6.016975,,,0,,,0,
200508006,,"Senningerberg, Kapell",,49.650171,6.226620,,,0,,,0,
200508007,,"Senningerberg, Laangschib",,49.644420,6.220892,,,0,,,0,
200508008,,"Senningerberg, Mënsterbësch",,49.645584,6.224788,,,0,,,0,
200508009,,"Senningerberg, Rue des Pins",,49.648191,6.237886,,,0,,,0,
140602002,,"Erpeldange-sur-Sûre, Beim Dreieck",,49.852628,6.114932,,,0,,,0,
140602001,,"Erpeldange-sur-Sûre, An der Gewan",,49.858439,6.112763,,,0,,,0,
140602006,,"Erpeldange-sur-Sûre, Laduno",,49.852931,6.117725,,,0,,,0,
200403017,,"Belair, Nicolas Simmer",,49.614244,6.113534,,,0,,,0,
140602005,,"Erpeldange/Ettelbruck, Bei der Kiirch",,49.861770,6.112829,,,0,,,0,
200403016,,"Belair, Rue de l'Ouest",,49.615205,6.094771,,,0,,,0,
140602004,,"Erpeldange/Ettelbruck, Beim Hôtel",,49.865886,6.113391,,,0,,,0,
200403019,,"Belair, Val Ste Croix",,49.612298,6.097588,,,0,,,0,
200403018,,"Belair, Rue d'Ostende",,49.614387,6.108458,,,0,,,0,
140602009,,"Erpeldange-sur-Sûre, Fridhaff Ouest",,49.873582,6.128035,,,0,,,0,
140602008,,"Erpeldange-sur-Sûre, Um Dreieck",,49.850779,6.115126,,,0,,,0,
140602007,,"Erpeldange-sur-Sûre, Beim Schlass",,49.859749,6.112602,,,0,,,0,
200403010,,"Belair, Kierch",,49.610455,6.107721,,,0,,,0,
200403013,,"Belair, Place de France",,49.606391,6.106370,,,0,,,0,
200403012,,"Belair, Oradour",,49.609560,6.103939,,,0,,,0,
200403015,,"Belair, Rheinsheim",,49.607454,6.120829,,,0,,,0,
400000007,,"Cattenom, Gendarmerie CD",,49.407387,6.240290,,,0,,,0,
200403014,,"Belair, Place de Liège",,49.608594,6.107776,,,0,,,0,
400000002,,"Audun-le-Tiche, Gare",,49.478591,5.958730,,,0,,,0,
140310002,,"Welscheid, Jongerts",,49.887255,6.065888,,,0,,,0,
140310001,,"Welscheid, Bei der Bréck",,49.886780,6.059930,,,0,,,0,
200403006,,"Belair, Crécy",,49.608866,6.116856,,,0,,,0,
110806001,,"Deiffelt, Haaptstrooss",,50.064928,5.963137,,,0,,,0,
200403005,,"Belair, Sacré-Coeur",,49.610276,6.113159,,,0,,,0,
200403008,,"Belair, Guillaume",,49.606639,6.118455,,,0,,,0,
200403007,,"Belair, Franciscaines",,49.608274,6.112973,,,0,,,0,
200403009,,"Belair, Kannerklinick/Maternité",,49.617937,6.097544,,,0,,,0,
200403002,,"Belair, Archiducs",,49.612674,6.112256,,,0,,,0,
200403001,,"Belair, Amsterdam",,49.612203,6.108185,,,0,,,0,
200403004,,"Belair, Bragance",,49.607298,6.114955,,,0,,,0,
200403003,,"Belair, Aubépines",,49.615499,6.098270,,,0,,,0,
110203001,,Ennert Schinker,,49.988648,6.088253,,,0,,,0,
110203002,,"Schinker, Um Rank",,49.991527,6.087549,,,0,,,0,
110203003,,Um Schinker,,49.992021,6.088594,,,0,,,0,
110604001,,Hautbellain,,50.155649,5.977062,,,0,,,0,
220903002,,"Rodange, Cité à la Wissi",,49.547032,5.827906,,,0,,,0,
140309003,,"Schlindermanderscheid, An der Driicht",,49.934346,6.056518,,,0,,,0,
220903003,,"Rodange, Croix St. Pierre",,49.543378,5.828489,,,0,,,0,
140309002,,"Schlindermanderscheid, Kiirch",,49.932969,6.061439,,,0,,,0,
210802001,,Hëttermillen,,49.588134,6.372728,,,0,,,0,
140309001,,"Schlindermanderscheid, Bei Zäichens",,49.931270,6.061486,,,0,,,0,
220903008,,"Rodange, Gare routière",,49.550951,5.844205,,,0,,,0,
220903009,,"Rodange, Gendarmerie",,49.549944,5.838296,,,0,,,0,
220903004,,"Rodange, Fonderie",,49.545658,5.824386,,,0,,,0,
220903005,,"Rodange, Fontaine d'Olière",,49.542422,5.822536,,,0,,,0,
220903006,,"Rodange, Frontière",,49.541238,5.815451,,,0,,,0,
220903007,,"Rodange, Klopp",,49.544964,5.837802,,,0,,,0,
110409005,,"Wahlhausen, Burebierg",,49.982573,6.117681,,,0,,,0,
110706014,,"Wemperhardt, Beim Massen",,50.149123,6.057415,,,0,,,0,
110409006,,"Wahlhausen, Kiirch",,49.982430,6.123884,,,0,,,0,
110706015,,"Weiswampach, Kiämmel",,50.140307,6.078756,,,0,,,0,
110706012,,"Weiswampach, Grait",,50.134836,6.075521,,,0,,,0,
110706013,,"Wemperhardt, 3 Braken",,50.156862,6.049000,,,0,,,0,
180206001,,Hagelsdorf,,49.692312,6.364561,,,0,,,0,
130208001,,Valeriushaff,,49.884371,6.185328,,,0,,,0,
110706010,,"Wemperhardt, Op der Haart",,50.150821,6.054146,,,0,,,0,
110706011,,Wemperhaardt,,50.155300,6.052317,,,0,,,0,
130208003,,Houschterhaff,,49.940422,6.152789,,,0,,,0,
130208002,,"Walsdorf, An der Gaass",,49.925767,6.172980,,,0,,,0,
110409001,,"Wahlhausen, Akescht",,49.977503,6.122518,,,0,,,0,
110409002,,"Wahlhausen, Am Duerf",,49.984665,6.125481,,,0,,,0,
110409003,,"Wahlhausen, Jouseps",,49.985928,6.108621,,,0,,,0,
220903011,,"Rodange, Gare",,49.550959,5.843499,,,0,,,0,
160602002,,"Ernzen, Manzebach",,49.776985,6.219244,,,0,,,0,
160602001,,"Ernzen, Kapell",,49.772361,6.221148,,,0,,,0,
220903014,,"Rodange, Am Duerf",,49.545474,5.839345,,,0,,,0,
220903015,,"Rodange, Niederredingen",,49.541563,5.843372,,,0,,,0,
220903017,,"Rodange, rue Philippart",,49.543527,5.841171,,,0,,,0,
220903018,,"Rodange, Raths",,49.551506,5.848041,,,0,,,0,
110706003,,"Weiswampach, Hugeriit",,50.142838,6.072107,,,0,,,0,
110706004,,"Weiswampach, Om Knupp",,50.139554,6.079586,,,0,,,0,
110706001,,"Weiswampach, Am Leempull",,50.141978,6.075813,,,0,,,0,
110706002,,"Weiswampach, Beelerstrooss",,50.141760,6.077548,,,0,,,0,
180102002,,"Berg, Haff Biel",,49.679283,6.351055,,,0,,,0,
180102001,,"Berg, Bei der Schmett",,49.681852,6.358749,,,0,,,0,
110706009,,"Weiswampach, Dränk",,50.135297,6.074149,,,0,,,0,
110811002,,"Hoffelt, Bei der Kirich",,50.098956,5.921321,,,0,,,0,
110706007,,"Weiswampach, Post",,50.138510,6.076024,,,0,,,0,
200426011,,"Weimerskirch, Tommys Bruch",,49.631587,6.138063,,,0,,,0,
110706008,,"Weiswampach, Iäwwischt Duarref",,50.139670,6.078851,,,0,,,0,
200426010,,"Weimerskirch, St.Vith",,49.626154,6.138824,,,0,,,0,
110706005,,"Weiswampach, Ennischt Duarref",,50.135204,6.074770,,,0,,,0,
110811001,,"Hoffelt, Driicht",,50.097723,5.916547,,,0,,,0,
110706006,,"Weiswampach, Duarrefstrooss 86",,50.133413,6.078295,,,0,,,0,
220903022,,"Rodange, Siole",,49.542234,5.824843,,,0,,,0,
220903024,,"Rodange, Vullesang",,49.547265,5.844290,,,0,,,0,
220903025,,"Rodange, Waeschbur",,49.544474,5.832386,,,0,,,0,
220903020,,"Rodange, Schlaakemillen",,49.548636,5.831937,,,0,,,0,
140504004,,Folkendange,,49.842224,6.202036,,,0,,,0,
220903021,,"Rodange, Schwemm",,49.541691,5.845106,,,0,,,0,
140504003,,Reisermillen,,49.841362,6.224926,,,0,,,0,
140504002,,Neimillen,,49.838458,6.224981,,,0,,,0,
161103002,,"Hollenfels, Vereinsbau",,49.715201,6.051413,,,0,,,0,
140504001,,Keiwelbaach,,49.849593,6.233164,,,0,,,0,
161103001,,"Hollenfels, Schoul",,49.712698,6.048138,,,0,,,0,
220903026,,"Rodange, Rue Joseph Moscardo",,49.546732,5.836982,,,0,,,0,
220903027,,"Rodange, Wissi",,49.548969,5.832911,,,0,,,0,
220903028,,"Rodange, Beim Casino",,49.549666,5.838659,,,0,,,0,
220903029,,"Rodange, Brouckerwee",,49.546942,5.834770,,,0,,,0,
190502003,,"Hobscheid, Schoul",,49.687818,5.913500,,,0,,,0,
190502004,,"Hobscheid, Steekaul",,49.693559,5.917948,,,0,,,0,
190502005,,"Hobscheid, Viirstad",,49.679998,5.920165,,,0,,,0,
190502006,,"Hobscheid, Ruppert",,49.685549,5.915807,,,0,,,0,
190502001,,"Hobscheid, Ehnerpad",,49.696014,5.918917,,,0,,,0,
190502002,,"Hobscheid, Hiehl",,49.684972,5.916093,,,0,,,0,
150202001,,"Platen, Kinnebësch",,49.790805,5.936971,,,0,,,0,
220502001,,"Frisange, Aal Gemeng",,49.516571,6.187732,,,0,,,0,
150202002,,Platen,,49.786905,5.936133,,,0,,,0,
220502002,,"Frisange, Ennescht Duerf",,49.516661,6.198090,,,0,,,0,
220502003,,"Frisange, Hau",,49.522578,6.185411,,,0,,,0,
190502007,,"Hobscheid, Laiterie",,49.687615,5.912986,,,0,,,0,
220502004,,"Frisange, Op der Kräizong",,49.515901,6.188682,,,0,,,0,
220502005,,"Frisange, Park & Ride",,49.506779,6.193861,,,0,,,0,
220502006,,"Frisange, Cité Aaluecht",,49.512780,6.189801,,,0,,,0,
170302003,,"Bollendorf-Pont, Pont",,49.850196,6.358818,,,0,,,0,
210503006,,"Mondorf-les-Bains, Réimecherstrooss",,49.508082,6.283850,,,0,,,0,
210503005,,"Mondorf-les-Bains, Kleng Gare",,49.504184,6.266162,,,0,,,0,
210503004,,"Mondorf-les-Bains, Daundorf",,49.507256,6.285056,,,0,,,0,
210503003,,"Mondorf-les-Bains, Christophorus",,49.504642,6.274508,,,0,,,0,
210503002,,"Mondorf-les-Bains, Casino 2000",,49.506248,6.281589,,,0,,,0,
210503001,,"Mondorf-les-Bains, Bei der Douane",,49.504588,6.270312,,,0,,,0,
210904002,,"Waldbredimus, Kiirch",,49.556859,6.287588,,,0,,,0,
190903016,,"Mamer, Scoutshome",,49.636594,6.011949,,,0,,,0,
210904001,,"Waldbredimus, Hanner Lautesch",,49.557250,6.293167,,,0,,,0,
190903015,,"Mamer (Lycée), Gare routière",,49.622321,6.035922,,,0,,,0,
170302001,,"Bollendorf, Gare",,49.849593,6.354079,,,0,,,0,
170302002,,"Bollendorf-Pont, Hamicht",,49.846904,6.367915,,,0,,,0,
140402001,,Fridhaff,,49.892034,6.134612,,,0,,,0,
170207001,,Kobenbour,,49.754567,6.306784,,,0,,,0,
220201041,,"Differdange, Roudenhaff",,49.529937,5.845932,,,0,,,0,
220201044,,"Differdange, Rue de Hussigny",,49.517620,5.880070,,,0,,,0,
210503009,,"Mondorf-les-Bains, Vor Howent",,49.508855,6.278833,,,0,,,0,
210503007,,"Mondorf-les-Bains, Stade John Grün",,49.509905,6.287120,,,0,,,0,
220201045,,"Differdange, R. de la Montagne",,49.520595,5.882976,,,0,,,0,
191103002,,"Kleinbettingen, Gare routière",,49.644113,5.915879,,,0,,,0,
191103001,,"Kleinbettingen, Duerf",,49.646286,5.918110,,,0,,,0,
150603002,,"Nagem, Centre Culturel",,49.789161,5.857853,,,0,,,0,
190903009,,"Mamer, Holzemerstrooss",,49.624790,6.015414,,,0,,,0,
150603003,,"Nagem, Pompstatioun",,49.786281,5.854829,,,0,,,0,
190903008,,"Mamer, Gare",,49.625768,6.020215,,,0,,,0,
110307001,,Lausdorn,,50.118017,6.083150,,,0,,,0,
190903007,,"Mamer, Gaaschtbierg",,49.627172,6.032470,,,0,,,0,
210503013,,"Mondorf-les-Bains, Place des Villes Jumelées",,49.505972,6.275581,,,0,,,0,
190903006,,"Mamer, Eisebunnsbréck",,49.627413,6.018772,,,0,,,0,
210503012,,"Mondorf-les-Bains, Ecole Internationale",,49.500946,6.284507,,,0,,,0,
190903005,,"Mamer, Eglantiers",,49.634080,6.016674,,,0,,,0,
210503011,,"Mondorf-les-Bains, Rue J. Dolibois",,49.512435,6.281881,,,0,,,0,
190903004,,"Mamer, Coq Hardi",,49.623271,6.011297,,,0,,,0,
210503010,,"Mondorf-les-Bains, Av. Gr.D. Charlotte",,49.509574,6.282607,,,0,,,0,
110307002,,"Heinerscheid, Buregaass",,50.098037,6.089217,,,0,,,0,
191103004,,"Kleinbettingen, Gare",,49.643957,5.917135,,,0,,,0,
191103003,,"Kleinbettingen, Kiirfecht",,49.647953,5.922924,,,0,,,0,
190606002,,"Olm, Kräizwee",,49.651104,5.994862,,,0,,,0,
190606003,,"Olm, Kréimerech",,49.655199,5.998047,,,0,,,0,
190606001,,"Olm, Dréischelsfeld",,49.647157,5.998112,,,0,,,0,
190903014,,"Mamer, Zentrum",,49.628904,6.021104,,,0,,,0,
190903013,,"Mamer, Tossebierg",,49.624275,6.036690,,,0,,,0,
190903012,,"Mamer, Mambra",,49.631518,6.022011,,,0,,,0,
220201053,,"Differdange, Schoul",,49.522709,5.889973,,,0,,,0,
190903011,,"Mamer (Lycée), Gare",,49.618394,6.029763,,,0,,,0,
220201054,,"Differdange, Seelebunn",,49.518783,5.897215,,,0,,,0,
220201057,,"Differdange, Wagner Koepges",,49.531476,5.891462,,,0,,,0,
150503001,,"Bilsdorf, Riesenhafferwee",,49.857612,5.827319,,,0,,,0,
200406008,,"Cents, Gabriel de Marie",,49.619016,6.165732,,,0,,,0,
200406009,,"Cents-Hamm, Halte CFL 3-4",,49.614884,6.165612,,,0,,,0,
130106004,,"Stolzembourg, S.E.O.",,49.954313,6.176760,,,0,,,0,
200406002,,"Cents, Arthur Knaff",,49.618368,6.160577,,,0,,,0,
130106003,,"Stolzembourg, Kiirch",,49.966029,6.166939,,,0,,,0,
200406003,,"Cents, Camille Polfer",,49.619366,6.176332,,,0,,,0,
201102001,,"Syren, Klappsbréck",,49.562929,6.221955,,,0,,,0,
180503001,,Blumenthal/Blummendall,,49.743649,6.265853,,,0,,,0,
130106002,,"Stolzembourg, Bréck",,49.963294,6.169471,,,0,,,0,
201102002,,"Syren, Nidderbaach",,49.565319,6.219925,,,0,,,0,
130106001,,"Stolzembourg, Akescht",,49.977132,6.165547,,,0,,,0,
201102003,,"Syren, Troudelermillen",,49.565157,6.215065,,,0,,,0,
200406006,,"Cents, Dinselpuert",,49.610749,6.140890,,,0,,,0,
200406007,,"Cents, Fort Dumoulin",,49.612424,6.147894,,,0,,,0,
200406004,,"Cents, Carmel",,49.618326,6.172432,,,0,,,0,
200406005,,"Cents, Charles de Tornaco",,49.619245,6.163295,,,0,,,0,
190903003,,"Mamer, C.I.P.A.",,49.628650,6.025219,,,0,,,0,
190903002,,"Mamer, Baerendall",,49.629898,6.025836,,,0,,,0,
190903001,,"Mamer, Arelerstrooss",,49.628887,6.028474,,,0,,,0,
220201066,,"Differdange, Maartplaz",,49.522662,5.887889,,,0,,,0,
220201065,,"Differdange, Avenue Charlotte",,49.518747,5.888857,,,0,,,0,
220201068,,"Differdange, Opkorn",,49.521528,5.891568,,,0,,,0,
220201067,,"Differdange, Vesquenhaff",,49.509598,5.871877,,,0,,,0,
221302001,,"Ehlerange, Centre",,49.522422,5.964814,,,0,,,0,
221302002,,"Ehlerange, Dennebësch",,49.529179,5.950808,,,0,,,0,
221302003,,"Ehlerange, Escherstrooss",,49.517697,5.965783,,,0,,,0,
120603001,,"Kautenbach, Am Duerf",,49.951718,6.016768,,,0,,,0,
120603003,,"Kautenbach, Gare",,49.948625,6.022090,,,0,,,0,
120603002,,"Kautenbach, Gare routière",,49.949220,6.021426,,,0,,,0,
200703001,,P.A.S.-Aalbaach,,49.644342,6.267876,,,0,,,0,
200703003,,P.A.S.-Bekassin,,49.643288,6.273892,,,0,,,0,
200703004,,P.A.S.-Bombicht,,49.643824,6.264580,,,0,,,0,
200703005,,P.A.S.-Stackint,,49.638887,6.270370,,,0,,,0,
170103002,,Vugelsmillen,,49.824352,6.325533,,,0,,,0,
221302008,,"Ehlerange, Schoul",,49.523424,5.966313,,,0,,,0,
170703003,,"Hinkel, Schiltzhaus",,49.786133,6.508459,,,0,,,0,
221302009,,"Ehlerange, ZARE ouest",,49.514382,5.966652,,,0,,,0,
170703002,,Hinkel,,49.783932,6.514059,,,0,,,0,
170103001,,Cloosbierg,,49.843371,6.319378,,,0,,,0,
170703001,,"Hinkel, Haaptstrooss",,49.782955,6.514651,,,0,,,0,
221302005,,"Ehlerange, Keupewee",,49.525889,5.961876,,,0,,,0,
221302006,,"Ehlerange, Monnerecherstrooss",,49.525587,5.974347,,,0,,,0,
221302007,,"Ehlerange, Rousebësch",,49.527937,5.957271,,,0,,,0,
221005001,,"Roedgen, Laangwis",,49.573401,6.032884,,,0,,,0,
200504012,,"Hostert, Binnewee",,49.654503,6.236239,,,0,,,0,
200504010,,"Niederanven, Jacques Lamort",,49.643032,6.263835,,,0,,,0,
121007001,,Schleef,,49.989667,5.856196,,,0,,,0,
200504011,,"Hostert, Betzberg",,49.652804,6.239273,,,0,,,0,
220602005,,"Tétange, Lorei",,49.469036,6.038024,,,0,,,0,
200304002,,"Howald, Bei der Kierch",,49.583246,6.142332,,,0,,,0,
220602004,,"Tétange, Kierfecht",,49.479568,6.043174,,,0,,,0,
200304001,,"Howald, Am Houwaldsbierg",,49.581843,6.148516,,,0,,,0,
220602007,,"Tétange, Schungfabrik",,49.477537,6.035868,,,0,,,0,
200304004,,"Howald, Jhangeli",,49.586097,6.143743,,,0,,,0,
190303010,,"Schouweiler, Kierfecht",,49.582982,5.956364,,,0,,,0,
220602006,,"Tétange, Rue Neuve",,49.479668,6.040379,,,0,,,0,
200304003,,"Howald, C.I.P.A.",,49.589170,6.147951,,,0,,,0,
220602001,,"Tétange, Duerf",,49.474412,6.040337,,,0,,,0,
220602002,,"Tétange, Gare",,49.477379,6.034980,,,0,,,0,
200406024,,"Cents-Hamm, Halte CFL 1-2",,49.614592,6.166556,,,0,,,0,
200304009,,"Howald, Peternelchen",,49.577091,6.136812,,,0,,,0,
200406025,,"Cents-Hamm, Gare",,49.615019,6.165978,,,0,,,0,
200406022,,"Luxembourg, Ecole Ste Sophie",,49.619057,6.151993,,,0,,,0,
220602009,,"Tétange, Bréck",,49.474824,6.034651,,,0,,,0,
200304006,,"Howald, Moureschanz",,49.583293,6.136560,,,0,,,0,
220602008,,"Tétange, Um Haff",,49.471925,6.038747,,,0,,,0,
200304005,,"Howald, Minsbësch",,49.580323,6.145990,,,0,,,0,
200304008,,"Howald, P&R Howald",,49.579057,6.127911,,,0,,,0,4
200304007,,"Howald, Op der Stirzel",,49.576768,6.135392,,,0,,,0,
190704001,,Wandhaff,,49.646702,5.956921,,,0,,,0,
200504005,,"Niederanven, Op de Wolleken",,49.655478,6.250693,,,0,,,0,
190303009,,"Schouweiler, Bei der Schoul",,49.582593,5.961079,,,0,,,0,
190704002,,"Windhof (Koerich), Ecoparc",,49.647573,5.955508,,,0,,,0,
200504006,,"Niederanven, Routscheed",,49.650487,6.252318,,,0,,,0,
190303006,,"Schouweiler, Schéiferwee",,49.581015,5.951049,,,0,,,0,
200504003,,"Niederanven, Millen",,49.649119,6.259849,,,0,,,0,
190303007,,"Schouweiler, Belair",,49.585140,5.955967,,,0,,,0,
200504004,,"Niederanven, Minsbecherstrooss",,49.651214,6.256794,,,0,,,0,
200504001,,"Niederanven, Geisfeld",,49.652939,6.262018,,,0,,,0,
200504002,,"Niederanven, Laach",,49.651534,6.254725,,,0,,,0,
150607001,,"Reichlange, Hostellerie",,49.775450,5.925187,,,0,,,0,
150607002,,"Reichlange, Molkerei",,49.772348,5.925605,,,0,,,0,
120506001,,Ringel,,49.915706,6.010828,,,0,,,0,
200304013,,"Howald, Waassertuerm",,49.578187,6.147650,,,0,,,0,
190303001,,"Schouweiler, Bei der aler Schoul",,49.581461,5.959752,,,0,,,0,
200304012,,"Howald, P&R Howald",,49.579601,6.128834,,,0,,,0,1
200304015,,"Howald, 9 Mai 1944",,49.585115,6.138944,,,0,,,0,
200406019,,"Cents, Waassertuerm",,49.620830,6.182881,,,0,,,0,
200304014,,"Howald, Gare",,49.581086,6.132455,,,0,,,0,
190303004,,"Schouweiler, Kastill",,49.578201,5.946659,,,0,,,0,
221103002,,"Crauthem, Beim Schlass",,49.534806,6.144745,,,0,,,0,
190303005,,"Schouweiler, Kiirch",,49.581667,5.957346,,,0,,,0,
221103001,,"Crauthem, Am Gruef",,49.537284,6.144905,,,0,,,0,
190303002,,"Schouweiler, Gare",,49.573517,5.960135,,,0,,,0,
200304011,,"Howald, Ronneboesch",,49.578820,6.133598,,,0,,,0,
190303003,,"Schouweiler, Hiel",,49.587367,5.954445,,,0,,,0,
200304010,,"Howald, Rangwee",,49.588177,6.139055,,,0,,,0,
200406013,,"Cents, Nic Rollinger",,49.611590,6.151653,,,0,,,0,
200406014,,"Cents, Paul Albrecht",,49.620727,6.174246,,,0,,,0,
200406011,,"Cents, Kéibierg-I.N.S.",,49.611157,6.143219,,,0,,,0,
200406012,,"Cents, Kierch",,49.615493,6.160744,,,0,,,0,
200304017,,"Howald, P&R Howald",,49.579393,6.128763,,,0,,,0,2
200406017,,"Cents, Tawioun",,49.613863,6.154068,,,0,,,0,
200406018,,"Cents, Trèves",,49.617635,6.169565,,,0,,,0,
200406015,,"Cents, Pommiers",,49.612783,6.157344,,,0,,,0,
200304018,,"Howald, P&R Howald",,49.578696,6.127504,,,0,,,0,3
200406016,,"Cents, Robert Bruch",,49.616913,6.166159,,,0,,,0,
160403001,,Schmët,,49.751511,6.204804,,,0,,,0,
200406010,,"Cents, Jules Salentiny",,49.616897,6.158932,,,0,,,0,
130201003,,"Bastendorf, Lann",,49.890598,6.164022,,,0,,,0,
150304001,,"Petit-Nobressart, Am Pesch",,49.778900,5.810640,,,0,,,0,
130201001,,"Bastendorf, Beim Terrain",,49.892086,6.160106,,,0,,,0,
130201002,,"Bastendorf, Ge'erwee",,49.886846,6.173543,,,0,,,0,
170801003,,"Christnach, Fielserstrooss",,49.788127,6.265933,,,0,,,0,
170801002,,"Christnach, Schoulstrooss",,49.788214,6.273042,,,0,,,0,
170801001,,"Christnach, Hierheck",,49.787346,6.269437,,,0,,,0,
180702001,,Pont de Langsur,,49.726560,6.495857,,,0,,,0,
120404003,,"Goesdorf, Pompjeën",,49.921321,5.966561,,,0,,,0,
120404002,,"Goesdorf, Maeschgaart",,49.922937,5.966097,,,0,,,0,
120404001,,"Goesdorf, Gemeng",,49.920722,5.970151,,,0,,,0,
200418002,,"Kockelscheuer, Kräizhaff",,49.562378,6.108089,,,0,,,0,
200418001,,"Kockelscheuer, Camping",,49.573842,6.113208,,,0,,,0,
200418004,,"Kockelscheuer, Plateau",,49.560158,6.108192,,,0,,,0,
200418003,,"Kockelscheuer, Patinoire",,49.565248,6.108472,,,0,,,0,
200418006,,"Kockelscheuer, Accumalux",,49.558979,6.102398,,,0,,,0,
200418005,,"Kockelscheuer, Poudrerie",,49.555292,6.106419,,,0,,,0,
200418007,,"Kockelscheuer, Parc Luxite",,49.558087,6.096601,,,0,,,0,
180507001,,"Godbrange, Bei der Kiirch",,49.734368,6.232661,,,0,,,0,
150802001,,"Rippweiler, Beim Nössert",,49.751133,5.955829,,,0,,,0,
220103001,,"Fennange, Am Duerf",,49.518978,6.075883,,,0,,,0,
220103002,,"Fennange, Rue des Champs",,49.519690,6.083040,,,0,,,0,
220801007,,"Bergem, Naerzengerstrooss",,49.517739,6.045570,,,0,,,0,
220801008,,"Bergem, Raedelsboesch",,49.521350,6.048130,,,0,,,0,
110101015,,"Clervaux, Hall Polyvalent",,50.061285,6.018273,,,0,,,0,
110101016,,"Clervaux, Gare",,50.061583,6.024627,,,0,,,0,
220801004,,"Bergem, Centre",,49.524176,6.041492,,,0,,,0,
110101013,,"Clervaux, Baastnecherstrooss",,50.064629,6.022007,,,0,,,0,
110101014,,"Clervaux, Kalborn/Kaalber",,50.101981,6.111691,,,0,,,0,
220801002,,"Bergem, Blummestrooss",,49.519343,6.045639,,,0,,,0,
150511005,,"Perlé, Schoul",,49.810170,5.764166,,,0,,,0,
150511006,,"Perlé, Kuelewee",,49.813507,5.760912,,,0,,,0,
150511001,,"Perlé, An der Huel",,49.809800,5.755766,,,0,,,0,
170402004,,"Consdorf, Melicksheck",,49.787666,6.345882,,,0,,,0,
150104001,,Huttange (Hitten),,49.735474,5.897733,,,0,,,0,
191003001,,"Roodt/Bour, Bréck",,49.694322,6.000711,,,0,,,0,
150511002,,"Perlé, Gare",,49.815272,5.764507,,,0,,,0,
170402005,,"Consdorf, Post",,49.778536,6.336907,,,0,,,0,
150511003,,"Perlé, Héiltzerwee",,49.809416,5.768429,,,0,,,0,
170402006,,"Consdorf, Schoul",,49.779819,6.337128,,,0,,,0,
170402007,,"Consdorf, Konstrëfermillen",,49.778947,6.327785,,,0,,,0,
300000086,,"Deiffelt, Carrefour",,50.195616,6.007175,,,0,,,0,
110101011,,"Clervaux, Postes",,50.054807,6.030859,,,0,,,0,
170402001,,"Consdorf, Gare",,49.773145,6.341105,,,0,,,0,
300000088,,"Autelbas, Centre",,49.648624,5.866474,,,0,,,0,
170402002,,"Consdorf, Haenricht",,49.780865,6.340766,,,0,,,0,
300000087,,"Barnich, Ecole",,49.648957,5.875126,,,0,,,0,
110101010,,"Clervaux, Police",,50.054135,6.025703,,,0,,,0,
170402003,,"Consdorf, Kraizstrooss",,49.782373,6.346880,,,0,,,0,
300000089,,"Autelbas, rue d'Autelhaut",,49.648067,5.862519,,,0,,,0,
220801009,,"Bergem, Steebréckerwee",,49.527302,6.036396,,,0,,,0,
110101008,,"Clervaux, Pl. de la Libération",,50.052825,6.030046,,,0,,,0,
110101009,,"Clervaux, Place Benelux",,50.054794,6.031070,,,0,,,0,
110101007,,"Clervaux, Piscine",,50.051658,6.020659,,,0,,,0,
140305001,,"Kehmen, Bei der Kiirch",,49.899882,6.036389,,,0,,,0,
300000071,,"St. Vith, Mein Lust",,50.261894,6.110753,,,0,,,0,
110101004,,"Clervaux, Maison de Retraite",,50.057760,6.025688,,,0,,,0,
300000070,,"Grüfflingen, Houffalizerstrasse",,50.230252,6.083259,,,0,,,0,
300000073,,"St. Vith, Maria Goretti",,50.279182,6.129921,,,0,,,0,
110101002,,"Clervaux, Gare routière/Lycée",,50.063617,6.024306,,,0,,,0,
300000072,,"St. Vith, Geschäftskomplex",,50.272942,6.118744,,,0,,,0,
110101003,,"Clervaux, Klatzewee",,50.054752,6.028362,,,0,,,0,
220801010,,"Bergem, Am Haff",,49.522103,6.043123,,,0,,,0,
220801011,,"Bergem, Beim Nëssert",,49.523632,6.039935,,,0,,,0,
180202001,,Boudler,,49.722127,6.351249,,,0,,,0,
300000074,,"St. Vith, Triangel",,50.281444,6.131174,,,0,,,0,
110101001,,"Clervaux, Clinique",,50.053318,6.025069,,,0,,,0,
110405001,,"Neidhausen, Kiirch",,50.028882,6.065919,,,0,,,0,
141001002,,"Medernach, Iermsdrëferstr.",,49.814549,6.216465,,,0,,,0,
141001001,,"Medernach, Fondation",,49.802135,6.217247,,,0,,,0,
160801001,,Asselscheuer/Uesselscheier,,49.690933,6.171964,,,0,,,0,
210104001,,Rolling/Bous,,49.550134,6.316320,,,0,,,0,
190201002,,"Clemency, Eecherwee",,49.602176,5.875877,,,0,,,0,
190201001,,"Clemency, Breedewee",,49.590715,5.879267,,,0,,,0,
190201008,,"Clemency, Schwemm",,49.594781,5.880226,,,0,,,0,
190201007,,"Clemency, Schock",,49.604821,5.877896,,,0,,,0,
180401011,,"Grevenmacher, Stadion",,49.685854,6.447702,,,0,,,0,
141001004,,"Medernach, Op der Lann",,49.809404,6.216899,,,0,,,0,
141001003,,"Medernach, Op der Gare",,49.805500,6.213912,,,0,,,0,
190201004,,"Clemency, Gemeng",,49.598595,5.873546,,,0,,,0,
190201003,,"Clemency, Féngegerbierg",,49.598192,5.885960,,,0,,,0,
190201006,,"Clemency, Ieweschtgaass",,49.594872,5.874282,,,0,,,0,
180401010,,"Grevenmacher, Schoul 2",,49.683049,6.441665,,,0,,,0,
190201005,,"Clemency, Henn",,49.594167,5.877469,,,0,,,0,
170601003,,"Born, Op Kimmelt",,49.767599,6.514631,,,0,,,0,
170601004,,"Born, Pëtzwee",,49.760405,6.513097,,,0,,,0,
170601001,,"Born, Kapell",,49.758243,6.510416,,,0,,,0,
300000091,,"Messancy, Promenade",,49.595793,5.819620,,,0,,,0,
220602010,,"Tétange, Schoul",,49.473928,6.038627,,,0,,,0,
170601002,,"Born, Op der Gare",,49.756991,6.507453,,,0,,,0,
300000090,,"Messancy, rue de Luxembourg 43",,49.593466,5.827259,,,0,,,0,
110823001,,Emeschbach,,50.092519,5.955239,,,0,,,0,
180401009,,"Grevenmacher, Op Flohr",,49.688207,6.447495,,,0,,,0,
180401008,,"Grevenmacher, Tanneurs",,49.680788,6.440730,,,0,,,0,
120705001,,"Liefrange, Kiirch",,49.909374,5.876162,,,0,,,0,
180401005,,"Grevenmacher, Route de Machtum",,49.670577,6.431356,,,0,,,0,
180401004,,"Grevenmacher, Jardin des Papillons",,49.683958,6.449007,,,0,,,0,
180401007,,"Grevenmacher, Seidenbroch",,49.675038,6.421181,,,0,,,0,
180401006,,"Grevenmacher, Schoul",,49.682124,6.442934,,,0,,,0,
300000097,,"Athus, Clinique",,49.563558,5.821952,,,0,,,0,
160906001,,"Pettingen, Barriär",,49.768657,6.110256,,,0,,,0,
180401001,,"Grevenmacher, Copal",,49.676158,6.427457,,,0,,,0,
300000099,,"Aubange, Ecole",,49.566435,5.801970,,,0,,,0,
180401003,,"Grevenmacher, Gare routière",,49.680161,6.446530,,,0,,,0,
300000098,,"Aubange, rue d'Athus",,49.564283,5.814615,,,0,,,0,
160906002,,"Pettingen, Beim Schlass",,49.770436,6.107289,,,0,,,0,
180401002,,"Grevenmacher, Enner der Bréck",,49.676758,6.443576,,,0,,,0,
200409014,,"Luxembourg, Chingiz Aitmatov",,49.639241,6.137641,,,0,,,0,
200409015,,"Dommeldange, Gare",,49.633834,6.136892,,,0,,,0,
300000042,,"Bastogne, Route de Wiltz 180",,49.992637,5.737747,,,0,,,0,
200409010,,"Dommeldange, Parc de l'Europe",,49.638811,6.144247,,,0,,,0,
200409011,,"Dommeldange, Van der Meulen",,49.636296,6.143701,,,0,,,0,
200409012,,"Dommeldange, Sidney Thomas",,49.634474,6.139486,,,0,,,0,
300000043,,"Messancy, Gare",,49.592922,5.818298,,,0,,,0,
200409013,,"Dommeldange, Uelzechtlycée",,49.637105,6.137116,,,0,,,0,
300000045,,"Sélange, Eglise",,49.609927,5.850184,,,0,,,0,
300000048,,"Wardin, Église",,49.991103,5.788465,,,0,,,0,
120903041,,"Wiltz, Wéinebeerig",,49.969434,5.936155,,,0,,,0,
120903040,,"Weidingen, Wegdicher Bréck",,49.972289,5.940019,,,0,,,0,
200422007,,"Neudorf, Kalchesbruck",,49.622585,6.185134,,,0,,,0,
200422006,,"Neudorf, Huesegrënnchen",,49.622903,6.164274,,,0,,,0,
200422009,,"Neudorf, Kierch",,49.621242,6.161836,,,0,,,0,
200422008,,"Neiduerf, Kapell",,49.623527,6.168447,,,0,,,0,
200422003,,"Neudorf/Weimershof, Fierschterhaus",,49.623805,6.177599,,,0,,,0,
200422002,,"Neudorf, Carrières",,49.625351,6.165780,,,0,,,0,
140601001,,"Burden, Beim Fëschweiher",,49.878035,6.078768,,,0,,,0,
200422005,,"Neudorf/Weimershof, Hierzekrëpp",,49.617071,6.151708,,,0,,,0,
200422004,,"Neudorf/Weimershof, Grunewald",,49.628419,6.177208,,,0,,,0,
140601002,,"Burden, Haaptstrooss",,49.881852,6.091360,,,0,,,0,
120802001,,"Lultzhausen, Bif.Lultzhausen",,49.907581,5.890473,,,0,,,0,
120802002,,"Lultzhausen, Driicht",,49.909008,5.889977,,,0,,,0,
200409007,,"Dommeldange, Emile Metz",,49.635082,6.134256,,,0,,,0,
150701004,,"Calmus, Titzebierg",,49.727786,5.966089,,,0,,,0,
200409008,,"Dommeldange, Gare routière",,49.633333,6.137004,,,0,,,0,
200409009,,"Dommeldange, Jean Engling",,49.638231,6.141552,,,0,,,0,
110105001,,"Weicherdange, Café Bourg",,50.037783,5.984727,,,0,,,0,
200409003,,"Dommeldange, Château",,49.634696,6.138628,,,0,,,0,
110105002,,"Weicherdange, Kierch",,50.037061,5.988069,,,0,,,0,
110105003,,"Weicherdange, Kirelshaff",,50.032163,5.972021,,,0,,,0,
120903039,,"Wiltz, Schwemm",,49.962914,5.922316,,,0,,,0,
200409005,,"Dommeldange, Contournement",,49.633039,6.139667,,,0,,,0,
120903038,,"Wiltz, Schumann",,49.947085,5.881780,,,0,,,0,
200409006,,"Dommeldange, Dauschbuer",,49.640134,6.153049,,,0,,,0,
300000031,,"Frassem, Carrefour",,49.699675,5.824379,,,0,,,0,
120903036,,"Wiltz, Salzbaach",,49.962234,5.907242,,,0,,,0,
120903035,,"Wiltz, Huuschtewee",,49.963654,5.929521,,,0,,,0,
200422001,,"Neiduerf, Brasserie",,49.622451,6.164923,,,0,,,0,
300000032,,"Gouvy, Gare",,50.188864,5.955445,,,0,,,0,
120903033,,"Wiltz, Post",,49.966125,5.931804,,,0,,,0,
190701001,,"Goeblange, Giewel",,49.669570,5.965099,,,0,,,0,
150701001,,"Calmus, Lannekneppchen",,49.721614,5.960924,,,0,,,0,
120903031,,"Wiltz, Huuschtewee/Parking",,49.962662,5.926377,,,0,,,0,
120903030,,"Wiltz, Kautebaacherstrooss",,49.966699,5.933428,,,0,,,0,
150701003,,"Calmus, Wäschbur",,49.724980,5.963045,,,0,,,0,
200203002,,"Moutfort, Juxgaass",,49.587991,6.251584,,,0,,,0,
200203001,,"Moutfort, Bombasch",,49.594750,6.250194,,,0,,,0,
300000060,,"Messancy, rue de Luxembourg",,49.593723,5.832391,,,0,,,0,
300000062,,"Messancy, Cités",,49.593336,5.822548,,,0,,,0,
300000061,,"Messancy, rue du Château",,49.594662,5.820734,,,0,,,0,
200901033,,"Strassen, Les Thermes",,49.612274,6.076309,,,0,,,0,
200901035,,"Strassen, Cité Pescher",,49.621154,6.078464,,,0,,,0,
160205003,,"Grevenknapp, Um ënnschte Knapp",,49.765591,6.028216,,,0,,,0,
160205002,,"Grevenknapp, Riesenhaff",,49.762813,6.031816,,,0,,,0,
200203005,,"Moutfort, Syrbréck",,49.587276,6.255596,,,0,,,0,
200203004,,Moutfort-Kiem,,49.585872,6.261251,,,0,,,0,
200203003,,"Moutfort, Kapell",,49.587905,6.258605,,,0,,,0,
300000069,,"Beho, rue de l'Eglise",,50.219535,5.997013,,,0,,,0,
200901040,,"Strassen, prov. Schafsstrachen",,49.620227,6.086994,,,0,,,0,
170605003,,"Moersdorf, Iewescht Duerf",,49.744098,6.499424,,,0,,,0,
300000051,,"Barnich-Autelbas, Eglise",,49.650029,5.869848,,,0,,,0,
170605002,,"Moersdorf, Olek",,49.741925,6.501257,,,0,,,0,
300000050,,"Sterpenich, Église",,49.648006,5.888905,,,0,,,0,
170605001,,"Moersdorf, Duerf",,49.745060,6.501055,,,0,,,0,
210303001,,"Welfrange, Op der Plaz",,49.539607,6.283899,,,0,,,0,
170305001,,Bif. Kalkesbach,,49.800203,6.343348,,,0,,,0,
200410005,,"Eich, Octroi",,49.622552,6.130325,,,0,,,0,
200410003,,"Eich, Eecher Plaz",,49.627562,6.129933,,,0,,,0,
200410004,,"Eich, Eecher Klinick",,49.631790,6.134643,,,0,,,0,
200410001,,"Eich, Centre Culturel",,49.628936,6.132373,,,0,,,0,
200410002,,"Eich, Ecole Eich",,49.626949,6.127712,,,0,,,0,
300000053,,"Hondelange, Chemin des Mines",,49.641582,5.840797,,,0,,,0,
300000052,,"Autelhaut, Eglise",,49.651296,5.843327,,,0,,,0,
300000055,,"Hondelange, Centre (aire de jeux)",,49.632436,5.832358,,,0,,,0,
120401002,,"Bockholtz/Wiltz, Op der Millen",,49.926515,6.006466,,,0,,,0,
300000054,,"Hondelange, rue de la Biff",,49.638101,5.839485,,,0,,,0,
300000057,,"Sélange, rue du Bois",,49.611825,5.848206,,,0,,,0,
300000056,,"Hondelange, rue du Pont",,49.631054,5.836105,,,0,,,0,
120401001,,Bockholtz/Wiltz,,49.922844,5.995309,,,0,,,0,
300000059,,"Sélange, rue de Clemency",,49.606216,5.850381,,,0,,,0,
110803003,,"Boxhorn, Schemer",,50.082114,5.990529,,,0,,,0,
121003001,,"Doncols, Bei der Kierch",,49.969907,5.837232,,,0,,,0,
121003002,,"Doncols, Beim Schnegder",,49.968991,5.835311,,,0,,,0,
200901010,,"Strassen, Follereau",,49.618617,6.058219,,,0,,,0,
200901011,,"Strassen, Schoenacht",,49.622140,6.057716,,,0,,,0,
200102003,,"Helfenterbréck, Pletzer",,49.603605,6.075389,,,0,,,0,
200102004,,Helfenterbréck,,49.603673,6.078042,,,0,,,0,
200901013,,"Strassen, Grande-Duchesse Charlotte",,49.619124,6.072188,,,0,,,0,
200102001,,"Helfent, Automobile Club",,49.601290,6.069229,,,0,,,0,
200901014,,"Strassen, Hondseck",,49.618019,6.087555,,,0,,,0,
200102002,,"Helfent, City Concorde",,49.600631,6.065587,,,0,,,0,
200901015,,"Strassen, Huorgarten",,49.617383,6.091941,,,0,,,0,
200901016,,"Strassen, Geesseneck",,49.621637,6.062012,,,0,,,0,
200901017,,"Strassen, Kesseler",,49.621012,6.066453,,,0,,,0,
200102005,,"Bertrange, Spatzwiss",,49.610678,6.068693,,,0,,,0,
110803002,,"Boxhorn, Hauptstrooss",,50.080193,5.996241,,,0,,,0,
200901018,,"Strassen, Kiem",,49.618571,6.078065,,,0,,,0,
110803001,,"Boxhorn, Am Eck",,50.083938,5.991142,,,0,,,0,
300000006,,"Arlon, rue Léon Castilhon",,49.682776,5.806623,,,0,,,0,
200901019,,"Strassen, Les Aubépines",,49.616029,6.090333,,,0,,,0,
300000005,,"Arlon, Pl.des Chasseurs Ard.",,49.685418,5.817599,,,0,,,0,
300000008,,"Athus, Croisement Gare",,49.563208,5.826912,,,0,,,0,
300000007,,"Athus, Centre (Grand Rue)",,49.562970,5.833968,,,0,,,0,
300000009,,"Athus, Douane",,49.560743,5.843020,,,0,,,0,
120708001,,"Tarchamps, Kierch",,49.949542,5.795401,,,0,,,0,
110402002,,"Hosingen, Gemönnerbréck",,49.986932,6.162376,,,0,,,0,
121003003,,"Doncols, Um Wäschbur",,49.968142,5.832215,,,0,,,0,
300000002,,"Arlon, Cimetière",,49.691934,5.818019,,,0,,,0,
300000001,,"Arlon, Square Astrid",,49.685867,5.810372,,,0,,,0,
300000004,,"Arlon, Institut notre Dame (INDA)",,49.682295,5.814960,,,0,,,0,
110402001,,Dosberbréck,,50.049078,6.125921,,,0,,,0,
300000003,,"Arlon, Gare",,49.680669,5.807857,,,0,,,0,
140901002,,"Hoscheid, Kräizgaass",,49.945873,6.080463,,,0,,,0,
140901001,,"Hoscheid, Braaken",,49.950144,6.081097,,,0,,,0,
130204001,,"Fouhren, Halt",,49.912348,6.193826,,,0,,,0,
200901020,,"Strassen, Benelux",,49.619625,6.076326,,,0,,,0,
140901003,,"Hoscheid, Markenbach",,49.938429,6.084203,,,0,,,0,
200901022,,"Strassen, Michel Angelo",,49.616680,6.086915,,,0,,,0,
200901024,,"Strassen, Primeurs",,49.619924,6.093922,,,0,,,0,
200901025,,"Strassen, Réimerwee",,49.617812,6.082195,,,0,,,0,
200901026,,"Strassen, Riedgen",,49.618156,6.057402,,,0,,,0,
200901029,,"Strassen, Terminus",,49.621916,6.058464,,,0,,,0,
161006001,,Aechelbur,,49.801518,6.185384,,,0,,,0,
141203005,,"Reisdorf, Duddwee",,49.858900,6.273599,,,0,,,0,
141203003,,"Reisdorf, Beim Goberhaff",,49.861307,6.271168,,,0,,,0,
141203004,,"Reisdorf, Cité J. Hientgen",,49.868675,6.260467,,,0,,,0,
201004001,,"Walferdange, Gare",,49.662030,6.136207,,,0,,,0,
141203001,,"Reisdorf, An der Ee",,49.870257,6.269591,,,0,,,0,
201004002,,"Walferdange, Gemenge Plaz",,49.659142,6.130750,,,0,,,0,
141203002,,"Reisdorf, Bei der Gare",,49.867986,6.263679,,,0,,,0,
201004003,,"Walferdange, Gare routière",,49.661484,6.135961,,,0,,,0,
180304001,,"Gostingen, Am Ennerduerf",,49.619522,6.353025,,,0,,,0,
180304002,,"Gostingen, Kiirch",,49.622115,6.353895,,,0,,,0,
180304003,,"Gostingen, Festsall",,49.621874,6.355168,,,0,,,0,
300000028,,"Benonchamps, Route de Mageret 108",,50.004914,5.808398,,,0,,,0,
300000027,,"Bastogne, Home Market",,49.995478,5.724604,,,0,,,0,
300000029,,"Bras, Carrefour",,49.985942,5.818933,,,0,,,0,
300000020,,"Bastogne, Centre Sportif",,50.006174,5.723932,,,0,,,0,
200422010,,"Neiduerf, Kierfecht",,49.626378,6.174680,,,0,,,0,
200422011,,"Neudorf, Laangegronn",,49.624162,6.173078,,,0,,,0,
110815001,,"Oberwampach, Bréck",,50.016073,5.857599,,,0,,,0,
300000023,,"Bastogne, Place Merceny",,49.998255,5.716878,,,0,,,0,
110815002,,"Oberwampach, Duerefstrooss Belzen",,50.016096,5.861116,,,0,,,0,
160903001,,"Mersch, Hunnebour",,49.729417,6.079877,,,0,,,0,
200901002,,"Strassen, Atrium",,49.608512,6.079068,,,0,,,0,
200901003,,"Strassen, Aurélia",,49.619006,6.080656,,,0,,,0,
200901004,,"Strassen, Barblé",,49.620451,6.070585,,,0,,,0,
200901006,,"Strassen, Kaltacht",,49.619879,6.091377,,,0,,,0,
200901007,,"Strassen, Bourmicht",,49.610764,6.079916,,,0,,,0,
200901008,,"Strassen, Chapelle",,49.618648,6.064019,,,0,,,0,
300000016,,"Aubange, Nizette",,49.557065,5.789817,,,0,,,0,
300000019,,"Aubange, Village",,49.566768,5.809778,,,0,,,0,
300000018,,"Aubange, Place",,49.568965,5.805623,,,0,,,0,
150206001,,"Bettborn, Gemenge Plaz",,49.793929,5.937732,,,0,,,0,
300000011,,"Athus, Gare",,49.563763,5.828108,,,0,,,0,
300000010,,"Athus, Garage Peugeot",,49.562684,5.837334,,,0,,,0,
300000013,,"Arlon, Institut Itela (ISI)",,49.672755,5.815487,,,0,,,0,
300000012,,"Arlon, Inst. St. Marie (ISMA)",,49.687264,5.810142,,,0,,,0,
300000014,,"Athus, rue du Commerce",,49.559232,5.840725,,,0,,,0,
220201004,,"Differdange, Beckleck",,49.512525,5.872007,,,0,,,0,
140203009,,"Gilsdorf, rue des Près",,49.867218,6.182832,,,0,,,0,
220201003,,"Differdange, Arbed",,49.522867,5.894538,,,0,,,0,
110807008,,"Derenbach, Am Dueref",,50.011172,5.885016,,,0,,,0,
220201006,,"Differdange, Centre",,49.524257,5.889336,,,0,,,0,
110807002,,"Derenbach, Groësteen",,50.009641,5.887293,,,0,,,0,
180604001,,"Manternach, Munschecker",,49.699249,6.439524,,,0,,,0,
110807001,,"Derenbach, Kapell",,50.011330,5.883512,,,0,,,0,
110807006,,"Derenbach, Beim Wämperwee",,50.014899,5.883407,,,0,,,0,
190802001,,"Kopstal, Bréck",,49.663976,6.073071,,,0,,,0,
110807004,,"Derenbach, Weischent",,50.009417,5.894692,,,0,,,0,
110807003,,"Derenbach, Bei der Kirich",,50.014559,5.888859,,,0,,,0,
220402221,,"Esch-sur-Alzette, Terres Rouges",,49.491546,5.974445,,,0,,,0,
150108003,,"Schweich, An Thinnessen",,49.721269,5.923340,,,0,,,0,
140203001,,"Gilsdorf, An der Kléck",,49.869680,6.181631,,,0,,,0,
140203002,,"Gilsdorf, Bei der Schoul",,49.865264,6.179452,,,0,,,0,
150108002,,"Schweich, Peiffer",,49.720885,5.921421,,,0,,,0,
220201001,,"Differdange, Aal Gare",,49.527860,5.890835,,,0,,,0,
220201019,,"Differdange, Fousbann",,49.521864,5.898388,,,0,,,0,
161002001,,"Niederglabach, Peffeschhaff",,49.791233,6.156201,,,0,,,0,
220201018,,"Differdange, Fonds de Logement",,49.523228,5.885186,,,0,,,0,
140301003,,"Bourscheid, Op der Millen",,49.914009,6.089034,,,0,,,0,
140301004,,"Bourscheid, An der Schlënner",,49.932110,6.070508,,,0,,,0,
140301005,,"Bourscheid, Beim Schlass",,49.906031,6.077661,,,0,,,0,
140301001,,"Bourscheid, Bei der Kiirch",,49.909903,6.064304,,,0,,,0,
160805001,,"Hunsdorf, Alsbich",,49.696377,6.131455,,,0,,,0,
140301002,,"Bourscheid, Bei Meesch",,49.907618,6.060375,,,0,,,0,
150401001,,"Dellen, Am Duerf",,49.858661,5.958660,,,0,,,0,
210701024,,"Remich, Schoul",,49.546434,6.365122,,,0,,,0,
140203010,,"Gilsdorf, Op der Bell",,49.861857,6.178816,,,0,,,0,
140203011,,"Gilsdorf, Beim Kierfecht",,49.867696,6.187703,,,0,,,0,
140203012,,"Gilsdorf, Ackerbauschoul",,49.861175,6.165969,,,0,,,0,
220201011,,"Differdange, Cité Breitfeld",,49.521110,5.912891,,,0,,,0,
220201012,,"Differdange, Douane",,49.510591,5.872007,,,0,,,0,
220201026,,"Differdange, Hansen",,49.520801,5.906719,,,0,,,0,
220201025,,"Differdange, Grillplaz",,49.513849,5.869049,,,0,,,0,
220201028,,"Niederkorn, CHEM 2",,49.533692,5.888902,,,0,,,0,
180105001,,"Olingen, Am Kéisbierg",,49.679302,6.319833,,,0,,,0,
180105002,,"Olingen, Beim leschte Wollef",,49.681828,6.308505,,,0,,,0,
180105003,,"Olingen, Rue de Rodenbourg",,49.680193,6.314030,,,0,,,0,
180105005,,"Olingen, rue de Betzdorf",,49.681996,6.316884,,,0,,,0,
200402005,,"Beggen, Henri Heymanns",,49.637963,6.132148,,,0,,,0,
200402004,,"Beggen, Henri Dunant",,49.647594,6.134546,,,0,,,0,
110304002,,"Hupperdange, Schull",,50.096121,6.057518,,,0,,,0,
200402007,,"Beggen, Rue du Pont",,49.649008,6.127688,,,0,,,0,
200402006,,"Beggen, Kierch",,49.643420,6.129472,,,0,,,0,
110304004,,"Hupperdange, Knupp",,50.094867,6.053834,,,0,,,0,
110304003,,"Hupperdange, Hualewee",,50.095802,6.062293,,,0,,,0,
160805002,,"Hunsdorf, Bei der Kiirch",,49.696577,6.130084,,,0,,,0,
200402001,,"Beggen, Bastogne",,49.645927,6.128271,,,0,,,0,
200402003,,"Beggen, Cyprien Merjai",,49.643399,6.134779,,,0,,,0,
200402002,,"Beggen, Binnchen",,49.641641,6.130297,,,0,,,0,
110819001,,"Stockem, Duärrefstrooss",,50.078063,5.957302,,,0,,,0,
211003002,,"Wellenstein, rte de Mondorf",,49.523592,6.337979,,,0,,,0,
220201022,,"Differdange, Gemeng",,49.520661,5.887781,,,0,,,0,
211003001,,"Wellenstein, Centre",,49.524873,6.341682,,,0,,,0,
220201021,,"Differdange, Gare",,49.522547,5.891656,,,0,,,0,
211003003,,"Wellenstein, Caves coop.",,49.527855,6.347712,,,0,,,0,
220201023,,"Differdange, Gewännchen",,49.521333,5.915171,,,0,,,0,
220201036,,"Differdange, Place de France",,49.521330,5.882874,,,0,,,0,
220201039,,"Differdange, Profi",,49.520968,5.904208,,,0,,,0,
190802004,,"Kopstal, Kléipesch",,49.660849,6.072122,,,0,,,0,
190802002,,"Kopstal, Kapell",,49.661370,6.072479,,,0,,,0,
190802003,,"Kopstal, Saangen",,49.668803,6.072878,,,0,,,0,
220201031,,"Differdange, Moartplaz",,49.522722,5.887803,,,0,,,0,
120701001,,"Bavigne, Gemeng",,49.920680,5.848162,,,0,,,0,
220201032,,"Oberkorn, Gare",,49.510715,5.890928,,,0,,,0,
220201034,,"Differdange, Parc Gerlache",,49.524270,5.890814,,,0,,,0,
200414010,,"Cents, Fetschebuer",,49.614074,6.162308,,,0,,,0,
200414011,,"Hamm, Peupliers",,49.612132,6.164899,,,0,,,0,
200414013,,"Hamm, Ierzkaulen",,49.605114,6.153886,,,0,,,0,
221201014,,"Rumelange, Gare",,49.460057,6.032396,,,0,,,0,
221201013,,"Rumelange, Cité St. Paul",,49.453228,6.026792,,,0,,,0,
180803003,,"Machtum, Gellebur",,49.659846,6.431796,,,0,,,0,
180803002,,"Machtum, Deisermillen",,49.661703,6.425115,,,0,,,0,
180803004,,"Machtum, Ongkaf",,49.659512,6.437426,,,0,,,0,
221201012,,"Rumelange, Schmelz",,49.461923,6.034644,,,0,,,0,
221201011,,"Rumelange, Rembour",,49.463244,6.016399,,,0,,,0,
221201010,,"Rumelange, Pl. de France",,49.454295,6.028039,,,0,,,0,
200706001,,"Uebersyren, Kreizgaass",,49.631461,6.276325,,,0,,,0,
210202003,,"Elvange/Mondorf, Villette",,49.506888,6.314765,,,0,,,0,
120502003,,"Heiderscheid, Zone Commerciale",,49.885156,5.982099,,,0,,,0,
221201009,,"Rumelange, Maartplaz",,49.460823,6.030335,,,0,,,0,
210202004,,"Elvange, Wëntrengerstrooss",,49.504048,6.318747,,,0,,,0,
120502002,,Heiderscheid,,49.886687,5.978341,,,0,,,0,
221201008,,"Rumelange, Märtyrerstrooss",,49.455964,6.029966,,,0,,,0,
120502001,,"Heiderscheid, Fuussekaul",,49.878208,5.993057,,,0,,,0,
221201007,,"Rumelange, Laangegronn",,49.462008,6.021526,,,0,,,0,
221201006,,"Rumelange, Intermoselle",,49.464207,6.014339,,,0,,,0,
200426009,,"Weimerskirch, Pierre-Eloi Schoué",,49.626458,6.136937,,,0,,,0,
221201005,,"Rumelange, Gare routière",,49.460127,6.033041,,,0,,,0,
200426008,,"Weimerskirch, Mäertesbuer",,49.627954,6.139231,,,0,,,0,
221201004,,"Rumelange, Centre Culturel",,49.462161,6.026044,,,0,,,0,
200426007,,"Weimerskirch, Laval's Park",,49.628280,6.132786,,,0,,,0,
221201003,,"Rumelange, Atelier Kihn",,49.465208,6.036792,,,0,,,0,
200426006,,"Weimerskirch, Knupp",,49.628818,6.135607,,,0,,,0,
221201002,,"Rumelange, Aale Kierfecht",,49.462349,6.024611,,,0,,,0,
190603002,,"Keispelt, Spellen Eck",,49.694919,6.066468,,,0,,,0,
190603001,,"Keispelt, Bei Péickes",,49.693435,6.067570,,,0,,,0,
200426005,,"Weimerskirch, Duerf",,49.628371,6.136063,,,0,,,0,
150705002,,"Schwebach, Pont P&R",,49.747578,5.973976,,,0,,,0,
200426004,,"Weimerskirch, Biechelchen",,49.633567,6.141755,,,0,,,0,
200426003,,"Weimershof, Pâquerettes",,49.622573,6.158906,,,0,,,0,
200426002,,"Weimershof, Joseph Hackin",,49.630220,6.171356,,,0,,,0,
150705001,,"Schwebach, Am Duerf",,49.745645,5.970917,,,0,,,0,
200426001,,"Weimershof, Bleuets",,49.620535,6.153943,,,0,,,0,
210202001,,"Elvange/Mondorf, Bei Tubes",,49.505149,6.315385,,,0,,,0,
210202002,,"Elvange/Mondorf, Kallekskaul",,49.501990,6.314204,,,0,,,0,
110503002,,"Munshausen, bei der Kierch",,50.032758,6.037541,,,0,,,0,
110503001,,"Munshausen, Iewescht Duerf",,50.035673,6.036859,,,0,,,0,
200601010,,"Sandweiler, Schiltzperdgen",,49.615717,6.221806,,,0,,,0,
200601014,,"Sandweiler, Kapellebierg",,49.617170,6.213416,,,0,,,0,
200601015,,"Sandweiler, Scheedbësch",,49.613951,6.202689,,,0,,,0,
200601012,,"Sandweiler, rue d'Itzig",,49.614513,6.216281,,,0,,,0,
200601013,,"Sandweiler-Contern, Gare routière",,49.599650,6.212505,,,0,,,0,
200601016,,"Sandweiler-Contern, Gare",,49.599093,6.211775,,,0,,,0,
160201003,,"Boevange, Gare",,49.774764,6.008178,,,0,,,0,
160201002,,"Boevange-sur-Attert, Millen",,49.777268,6.014220,,,0,,,0,
160201005,,"Boevange, Lëtschert",,49.773192,6.017707,,,0,,,0,
110702001,,"Binsfeld, Om Béchel",,50.119839,6.040715,,,0,,,0,
160201004,,"Boevange, Helpert",,49.774892,6.011060,,,0,,,0,
110702002,,"Binsfeld, Beim alen Burren",,50.119636,6.036978,,,0,,,0,
160201007,,"Boevange, Beim Wald",,49.772022,6.020488,,,0,,,0,
110702003,,"Binsfeld, Beim Musée",,50.117304,6.035849,,,0,,,0,
160201006,,"Boevange, Uerbelt",,49.774639,6.008936,,,0,,,0,
190404001,,"Kahler, Gare",,49.635439,5.914834,,,0,,,0,
190404002,,"Kahler, Kiirch",,49.631353,5.916796,,,0,,,0,
190404003,,"Kahler, Schmëtt",,49.628598,5.917745,,,0,,,0,
200414001,,"Hamm, Colonie",,49.607082,6.155266,,,0,,,0,
200414002,,"Hamm, Englebert Neveu",,49.605651,6.152678,,,0,,,0,
180511001,,"Junglinster, Gemeng",,49.715182,6.249777,,,0,,,0,
200414003,,"Hamm, Käschtewee",,49.612728,6.172729,,,0,,,0,
180511002,,"Junglinster, Op der Gare",,49.711447,6.252374,,,0,,,0,
200414004,,"Hamm, Kierch",,49.610188,6.167075,,,0,,,0,
180511003,,"Junglinster, Op der Rumm",,49.714829,6.248187,,,0,,,0,
120303001,,"Knaphoscheid, Dahl",,50.016455,5.964800,,,0,,,0,
180511004,,"Junglinster, Rue de la Gare",,49.711674,6.252861,,,0,,,0,
210401004,,"Canach, Post",,49.609367,6.324530,,,0,,,0,
120303002,,"Knaphoscheid, Schenten",,50.011650,5.962353,,,0,,,0,
180511005,,"Junglinster, Um Lei",,49.708178,6.249964,,,0,,,0,
210401007,,"Canach, Z.A. Rëckschleed",,49.605238,6.305972,,,0,,,0,
180511006,,"Junglinster, Um Radio",,49.720111,6.266468,,,0,,,0,
210401006,,"Canach, Weber",,49.609005,6.322529,,,0,,,0,
180511007,,"Junglinster, Um Reiland",,49.715220,6.260860,,,0,,,0,
180511008,,"Junglinster, Lënster Lycée (LLJ)",,49.701297,6.250381,,,0,,,0,
200601004,,"Sandweiler, Hiel",,49.617004,6.215848,,,0,,,0,
180511009,,"Junglinster, Op der Fréinen",,49.703581,6.248074,,,0,,,0,
200601001,,"Sandweiler, Am Eck",,49.613209,6.212188,,,0,,,0,
180803001,,"Machtum, Bei Kallek's",,49.659793,6.436317,,,0,,,0,
200601002,,"Sandweiler, Apdikt",,49.615256,6.222857,,,0,,,0,
200601007,,"Sandweiler, Koschterjanshaff",,49.613191,6.226782,,,0,,,0,
130103001,,"Merscheid/Putscheid, Hennischtgaass",,49.953685,6.105339,,,0,,,0,
200601008,,"Sandweiler, Rue d'Oetrange",,49.613516,6.226846,,,0,,,0,
150506002,,"Folschette, Belle-vue",,49.818769,5.862830,,,0,,,0,
200601005,,"Sandweiler, Kiirch",,49.616310,6.219155,,,0,,,0,
150506001,,"Folschette, An der Gaass",,49.813080,5.877699,,,0,,,0,
200601006,,"Sandweiler, Kontrollstatioun",,49.615762,6.209508,,,0,,,0,
150506004,,"Folschette, Op der Plaz",,49.813386,5.874691,,,0,,,0,
210401001,,"Canach, Am Stee",,49.612265,6.332000,,,0,,,0,
150506003,,"Folschette, Centre Culturel",,49.814642,5.872566,,,0,,,0,
150506006,,"Folschette, Carrières",,49.808922,5.895678,,,0,,,0,
200601009,,"Sandweiler, Schaedhaff",,49.606888,6.203758,,,0,,,0,
210401003,,"Canach, Op der Bréck",,49.612040,6.326931,,,0,,,0,
150506005,,"Folschette, Rammericherwee",,49.816523,5.868941,,,0,,,0,
210401002,,"Canach, Huehlgaass",,49.608034,6.315923,,,0,,,0,
150506008,,"Folschette, Hueschterbaach",,49.809209,5.891976,,,0,,,0,
200414005,,"Hamm, Montmédy",,49.604035,6.148453,,,0,,,0,
150506007,,Brisenhaff,,49.798276,5.870841,,,0,,,0,
200414006,,"Hamm, Rue de Bitbourg",,49.613187,6.169781,,,0,,,0,
200414007,,"Hamm, Rue Haute",,49.611019,6.169782,,,0,,,0,
200414008,,"Hamm, Schoul",,49.609145,6.161985,,,0,,,0,
200414009,,"Hamm, Ronndréisch",,49.614840,6.174490,,,0,,,0,
221002001,,"Limpach, Kiirch",,49.557905,5.979569,,,0,,,0,
221002002,,"Limpach, Uecht",,49.555960,5.979855,,,0,,,0,
220902020,,"Pétange, Op der Millen (Tennis)",,49.560952,5.872882,,,0,,,0,
500000086,,"Wasserliesch, Reiniger Kreuz",,49.704588,6.544814,,,0,,,0,
500000083,,"Trier, Theodor-Heuss-Allee",,49.759390,6.646138,,,0,,,0,
500000084,,"Trier, Süd",,49.744609,6.636803,,,0,,,0,
500000089,,"Wincheringen, Moselbrücke",,49.606863,6.404972,,,0,,,0,
110501005,,"Drauffelt, Park & Rail",,50.016897,6.007746,,,0,,,0,
110501002,,"Drauffelt, Gare routière",,50.017341,6.006811,,,0,,,0,
500000088,,"Wellen, Parking (Mosel)",,49.674449,6.443281,,,0,,,0,
110501003,,"Drauffelt, Op der Léi",,50.014930,6.000553,,,0,,,0,
220902021,,"Pétange, Rue des Romains",,49.555769,5.874167,,,0,,,0,
120704001,,"Kaundorf, An der Hielt",,49.921057,5.901840,,,0,,,0,
200507001,,"Senningen, Duerfplaz",,49.645929,6.238845,,,0,,,0,
200507002,,"Senningen, Kierch",,49.649755,6.247247,,,0,,,0,
200507003,,"Senningen, Um Kiem",,49.649105,6.243016,,,0,,,0,
500000082,,"Trier, Pacelliufer",,49.744847,6.628198,,,0,,,0,
500000080,,"Trier, Nordallee",,49.761608,6.638462,,,0,,,0,
500000074,,"Sirzenich, P&R B51",,49.773597,6.594208,,,0,,,0,
500000075,,"Temmels, Kirchstrasse",,49.690254,6.463266,,,0,,,0,
160601001,,"Larochette, Bleech",,49.784254,6.220370,,,0,,,0,
500000072,,"Saarburg, Bahnhof-Brückenstr.",,49.606984,6.555495,,,0,,,0,
160601002,,"Larochette, Boltgesteen",,49.785611,6.214346,,,0,,,0,
500000073,,"Saarlouis, Kleiner Markt",,49.313523,6.753220,,,0,,,0,
160601003,,"Larochette, Gare Routière",,49.783949,6.219276,,,0,,,0,
500000078,,"Trier, Christophstr.",,49.759151,6.645455,,,0,,,0,
500000079,,"Trier, Hauptbahnhof",,49.756972,6.651990,,,0,,,0,
500000077,,"Trier, Bei der Römerbrücke",,49.752539,6.628239,,,0,,,0,
160601008,,"Larochette, Spuerkeess",,49.784077,6.219755,,,0,,,0,
160601009,,"Larochette, Goudelt",,49.781321,6.181317,,,0,,,0,
160601005,,"Larochette, Leedebach",,49.789222,6.219349,,,0,,,0,
160601006,,"Larochette, Millewee",,49.781622,6.218659,,,0,,,0,
160601007,,"Larochette, Pomjeesbau",,49.781685,6.218308,,,0,,,0,
170804003,,"Waldbillig, Michel Rodange",,49.796330,6.285358,,,0,,,0,
130105002,,"Putscheid, Gemengebau",,49.959484,6.139964,,,0,,,0,
170804002,,"Waldbillig, Gemeng",,49.796532,6.283985,,,0,,,0,
130105003,,"Putscheid, Am Duerf",,49.959735,6.139196,,,0,,,0,
170804004,,"Waldbillig, Scheedhaff",,49.804721,6.258520,,,0,,,0,
130105001,,"Putscheid, Gemeng",,49.964060,6.131493,,,0,,,0,
140206001,,"Broderbour, Broderbour",,49.852085,6.185744,,,0,,,0,
180103002,,"Betzdorf, Gare",,49.688801,6.348666,,,0,,,0,
180103001,,"Betzdorf, Bei der Schoul",,49.687583,6.348510,,,0,,,0,
500000070,,Saarbrücken Hbf,,49.241393,6.990554,,,0,,,0,
140308001,,"Scheidel, Hengesch",,49.893211,6.044332,,,0,,,0,
120602001,,"Enscherange, Bei Steckech",,49.998767,5.990618,,,0,,,0,
120602002,,"Enscherange, Loumillen",,49.997291,5.993724,,,0,,,0,
170804001,,"Waldbillig, Bëlleger Kopp",,49.793869,6.280562,,,0,,,0,
170702002,,Girst 2,,49.773735,6.497982,,,0,,,0,
170702001,,Girst,,49.773310,6.501616,,,0,,,0,
160703011,,Prettingen,,49.717913,6.119820,,,0,,,0,
500000096,,"Trier, Zurlaubener Ufer",,49.763377,6.633876,,,0,,,0,
150901001,,Michelbouch,,49.818462,6.019109,,,0,,,0,
110202001,,"Holzthum, Op der Hoecht",,49.983310,6.070620,,,0,,,0,
110202002,,"Holzthum, Bei der Kierch",,49.984726,6.073255,,,0,,,0,
500000095,,"Trier, Hochschule",,49.767482,6.626566,,,0,,,0,
110202003,,"Holzthum, Kiirfecht",,49.986880,6.076277,,,0,,,0,
180504003,,"Bourglinster, Buchholz",,49.704022,6.211984,,,0,,,0,
180504002,,"Bourglinster, Am Duerf",,49.703432,6.217733,,,0,,,0,
201101001,,"Hassel, Dielchen",,49.551043,6.204709,,,0,,,0,
180504001,,"Bourglinster, Am Brill",,49.707041,6.217457,,,0,,,0,
201101002,,"Hassel, Karmesch",,49.550046,6.208859,,,0,,,0,
201101003,,"Hassel, Küneftchen",,49.548742,6.212598,,,0,,,0,
110202004,,"Holzthum, Ferme Theves",,49.990948,6.084193,,,0,,,0,
500000093,,"Schweich, P&R",,49.817096,6.758104,,,0,,,0,
500000090,,"Wincheringen, Wincheringen Ort",,49.609479,6.426249,,,0,,,0,
200417001,,"Kirchberg, Prince Félix",,49.625229,6.139973,,,0,,,0,
151003003,,"Grevels, Zentrum",,49.854083,5.917204,,,0,,,0,
210801005,,"Greiveldange, Schoul",,49.586511,6.357954,,,0,,,0,
151003002,,"Grevels, Ieweschten Eck",,49.849846,5.909779,,,0,,,0,
200417002,,"Kirchberg, Albert Borschette",,49.628599,6.162475,,,0,,,0,
200417005,,"Kirchberg, Antoine de St Exupéry",,49.627205,6.151546,,,0,,,0,
210801001,,"Greiveldange, Kellerei",,49.587160,6.363537,,,0,,,0,
200417004,,"Kirchberg, Alphonse Weicker (Bus)",,49.632299,6.169919,,,0,,,0,
200417007,,"Kirchberg, B.E.I.",,49.620896,6.139396,,,0,,,0,
151003001,,"Grevels, Eneschten Eck",,49.857417,5.919079,,,0,,,0,
210801003,,"Greiveldange, Neie Wee",,49.587032,6.361094,,,0,,,0,
210801002,,"Greiveldange, Gemengebréck",,49.586549,6.358851,,,0,,,0,
200405018,,"Centre, Gruef",,49.611087,6.131663,,,0,,,0,
200405012,,"Centre, Etats-Unis",,49.600302,6.126663,,,0,,,0,
200405013,,"Centre, F.D. Roosevelt",,49.609285,6.130828,,,0,,,0,
200405016,,"Centre, Forum Royal",,49.613133,6.127099,,,0,,,0,
200405014,,"Centre, Fondation Pescatore",,49.615707,6.126753,,,0,,,0,
200417008,,"Kirchberg, Bricher Gässel",,49.626948,6.166684,,,0,,,0,
200417012,,"Kirchberg, Chambre des Métiers",,49.633601,6.168002,,,0,,,0,
221004002,,"Reckange-sur-Mess, Findel",,49.564347,6.007277,,,0,,,0,
221004001,,"Reckange-sur-Mess, Am Duerf",,49.562099,6.007332,,,0,,,0,
200417014,,"Kirchberg, Coque",,49.622784,6.154282,,,0,,,0,
200417013,,"Kirchberg, Coudenhove-Kalergi",,49.627907,6.159205,,,0,,,0,
200417016,,"Kirchberg, Jean Monnet",,49.624798,6.145870,,,0,,,0,
200417015,,"Kirchberg, Hôpital",,49.632589,6.175166,,,0,,,0,
200417018,,"Kirchberg, Kierch",,49.627610,6.146038,,,0,,,0,
200405007,,"Centre, Cathédrale",,49.610004,6.131145,,,0,,,0,
200405008,,"Luxembourg, Centre Hospitalier",,49.618973,6.099753,,,0,,,0,
200405001,,"Gare, Al Avenue",,49.603043,6.133049,,,0,,,0,
110705001,,"Leithum, Bei der aler Schull",,50.159759,6.106164,,,0,,,0,
110705002,,"Leithum, Bei der Kirich",,50.160312,6.108511,,,0,,,0,
200405005,,"Centre, Badanstalt",,49.613535,6.129166,,,0,,,0,
200405003,,"Centre, Alsace",,49.596039,6.130332,,,0,,,0,
200417019,,"Kirchberg, Konrad Adenauer",,49.629435,6.156983,,,0,,,0,
221004004,,"Reckange-sur-Mess, Kierfecht",,49.558952,6.008437,,,0,,,0,
221004003,,"Reckange-sur-Mess, Wollefskaul",,49.562727,6.018054,,,0,,,0,
120201001,,"Esch-sur-Sûre, Sebes",,49.910379,5.922125,,,0,,,0,
150602001,,"Lannen, Schoul",,49.788031,5.838819,,,0,,,0,
120201002,,"Esch-sur-Sûre, An de Gäert",,49.909805,5.936775,,,0,,,0,
191104001,,"Steinfort, Al Schmelz",,49.661316,5.915275,,,0,,,0,
220501002,,"Aspelt, Gare",,49.520368,6.225751,,,0,,,0,
220501001,,"Aspelt, Am Grëndchen",,49.517838,6.233149,,,0,,,0,
110308002,,"Lieler, Gässelchen",,50.123770,6.106699,,,0,,,0,
220902002,,"Pétange, Athuserstrooss",,49.559486,5.865244,,,0,,,0,
110308001,,"Lieler, Beim Biereg",,50.125409,6.108573,,,0,,,0,
220902001,,"Pétange, A Rousen",,49.555361,5.875396,,,0,,,0,
110820002,,"Troine, Duarrefstrooss",,50.063703,5.883038,,,0,,,0,
220902006,,"Pétange, Gare routière",,49.554547,5.878892,,,0,,,0,
110820003,,"Troine-Route, Op der Strooss",,50.045379,5.876765,,,0,,,0,
220902005,,"Pétange, Cité CFL",,49.558001,5.885199,,,0,,,0,
221401010,,"Schifflange, Cité Emile Mayrisch",,49.507461,6.004176,,,0,,,0,
110308004,,"Lieler, Schull",,50.124997,6.110795,,,0,,,0,
110820004,,"Troine-Route, Op der Haard",,50.053038,5.877204,,,0,,,0,
220902004,,"Pétange, Cactus",,49.554756,5.867995,,,0,,,0,
191104009,,"Steinfort, Äischzenter",,49.659779,5.920043,,,0,,,0,
110308003,,"Lieler, Om Knupp",,50.123931,6.104857,,,0,,,0,
220902003,,"Pétange, Gemeng",,49.556474,5.877289,,,0,,,0,
191104008,,"Steinfort, Um Quai",,49.658082,5.911406,,,0,,,0,
221401012,,"Schifflange, Paerchen",,49.510165,6.014442,,,0,,,0,
161104001,,Kuelbecherhaff,,49.717780,6.062246,,,0,,,0,
191104007,,"Steinfort, Schoul",,49.658210,5.913504,,,0,,,0,
221401011,,"Schifflange, Ecole Nelly Stein",,49.507422,6.007508,,,0,,,0,
220902009,,"Pétange, Kierfecht",,49.553144,5.877903,,,0,,,0,
220902008,,"Pétange, Rue Gillardin",,49.558987,5.872731,,,0,,,0,
191104005,,"Steinfort, Kolonie",,49.666527,5.919741,,,0,,,0,
221401013,,"Schifflange, Cité Benn",,49.506965,6.001678,,,0,,,0,
110820001,,"Troine, Bréck",,50.062359,5.883572,,,0,,,0,
220902007,,"Pétange, Gare",,49.554376,5.879221,,,0,,,0,
191104004,,"Steinfort, Gemeng",,49.659422,5.913413,,,0,,,0,
180205002,,"Brouch/Wecker, Gaerleck",,49.731510,6.347296,,,0,,,0,
200405032,,"Luxembourg, Gare Centrale",,49.599675,6.132928,,,0,,,0,2
200405038,,"Luxembourg, Ste Zithe",,49.606678,6.126191,,,0,,,0,
190605001,,"Nospelt, Beim Gliesener",,49.673710,6.005196,,,0,,,0,
200405039,,"Luxembourg, Wallis",,49.603111,6.134332,,,0,,,0,
190605002,,"Nospelt, Kräizhiel",,49.672684,6.011442,,,0,,,0,
120901003,,"Roullingen, Réimerwee",,49.956923,5.921332,,,0,,,0,
200405036,,"Luxembourg, Gare Centrale routière",,49.599066,6.133033,,,0,,,0,
180205001,,Brouch/Wecker,,49.728647,6.340943,,,0,,,0,
200405037,,"Luxembourg, rue Heine",,49.605223,6.130623,,,0,,,0,
120901001,,"Roullingen, Chalets Scouts",,49.958618,5.925881,,,0,,,0,
120901002,,"Roullingen, Am Duerf",,49.954696,5.923844,,,0,,,0,
150201001,,"G. Préizerdaul, Horass Millen",,49.809936,5.917134,,,0,,,0,
150201002,,"G. Préizerdaul, Horass",,49.809319,5.920996,,,0,,,0,
170301001,,"Berdorf, Bif. Heisbich",,49.817194,6.344850,,,0,,,0,
220902013,,"Pétange, Maartplaz",,49.556055,5.875753,,,0,,,0,
220902011,,"Pétange, Lëtzebuergerstrooss",,49.557125,5.880747,,,0,,,0,
220902010,,"Pétange, Kräizheck",,49.558725,5.861420,,,0,,,0,
220902017,,"Pétange, Paschtoueschhaus",,49.556513,5.875752,,,0,,,0,
220902016,,"Pétange, Op der Millen",,49.560578,5.870679,,,0,,,0,
190605003,,"Nospelt, Pompjeesbau",,49.673283,6.008868,,,0,,,0,
220902015,,"Pétange, Oberst Dässent",,49.553262,5.881297,,,0,,,0,
220902014,,"Pétange, Maison des Jeunes",,49.559292,5.873693,,,0,,,0,
210101001,,Assel,,49.554459,6.313525,,,0,,,0,
170301004,,"Berdorf, Duerfplaz",,49.821888,6.349835,,,0,,,0,
221401003,,"Schifflange, Stadhaus",,49.505652,6.011070,,,0,,,0,
170301003,,"Berdorf, Hôtel Perekop",,49.819914,6.358758,,,0,,,0,
220902019,,"Pétange, Porte Lamadelaine",,49.554158,5.864175,,,0,,,0,
221401002,,"Schifflange, Gare",,49.506302,6.009787,,,0,,,0,
170301002,,"Berdorf, Hotel Herber",,49.823488,6.352556,,,0,,,0,
220902018,,"Pétange, Prënzebierg",,49.552693,5.884887,,,0,,,0,
221401005,,"Schifflange, Huele Wee",,49.505363,6.007551,,,0,,,0,
120405002,,"Masseler, Op der Houscht",,49.934027,6.017973,,,0,,,0,
221401004,,"Schifflange, Gringe Wee",,49.507509,6.021318,,,0,,,0,
200405024,,"Luxembourg/Centre, Michel Rodange",,49.603089,6.124741,,,0,,,0,
221401007,,"Schifflange, Niddeschgaass",,49.506359,6.016497,,,0,,,0,
221401006,,"Schifflange, Millchen",,49.503754,6.000672,,,0,,,0,
200405022,,"Centre, Kasinosgaass",,49.612370,6.131519,,,0,,,0,
221401008,,"Schifflange, Poto",,49.507465,6.027303,,,0,,,0,
200405025,,"Luxembourg/Centre, Monterey",,49.610454,6.125013,,,0,,,0,
180701003,,"Mertert, Eglise",,49.700837,6.480745,,,0,,,0,
180701004,,"Mertert, Gare",,49.703198,6.478889,,,0,,,0,
180701005,,"Mertert, Parc",,49.702655,6.477086,,,0,,,0,
180701006,,"Mertert, route Nationale",,49.703854,6.478023,,,0,,,0,
200405020,,Hamilius (Bus),,49.611504,6.125976,,,0,,,0,
180701001,,"Mertert, Beckius",,49.704208,6.481902,,,0,,,0,
120405001,,Masseler,,49.930050,6.034789,,,0,,,0,
180701002,,"Mertert, Copal",,49.707137,6.486689,,,0,,,0,
200417045,,"Kirchberg, Nationalbibliothéik",,49.629243,6.166025,,,0,,,0,
200417044,,"Kirchberg, Luxexpo",,49.636361,6.175266,,,0,,,0,4
140501005,,"Eppeldorf, Op Baach",,49.846708,6.249509,,,0,,,0,
200417047,,"Kirchberg, Rout Bréck - Pafendall (Bus)",,49.618368,6.135750,,,0,,,0,
200417046,,"Kirchberg, Universitéit",,49.626010,6.160756,,,0,,,0,
200417049,,"Kirchberg, Niedergrünewald",,49.622078,6.145364,,,0,,,0,
140501002,,"Eppeldorf, Gaich",,49.846318,6.246387,,,0,,,0,
200417048,,"Kirchberg, Europe Gare routière",,49.624427,6.150863,,,0,,,0,
140501001,,"Eppeldorf, Faubourg",,49.843600,6.248572,,,0,,,0,
140501004,,"Eppeldorf, Hossebierg",,49.846261,6.264072,,,0,,,0,
140501003,,"Eppeldorf, Haaptstrooss",,49.844591,6.247514,,,0,,,0,
200417040,,"Kirchberg, Hugo Gernsback",,49.635835,6.174729,,,0,,,0,
110406001,,"Obereisenbach, Bei der Baach",,50.004847,6.147139,,,0,,,0,
200405057,,Hamilius (Tram),,49.611094,6.126139,,,0,,,0,
200405054,,"Centre, F.D. Roosevelt",,49.608042,6.132548,,,0,,,0,
200201009,,"Contern, Läiteschbaach",,49.599244,6.224805,,,0,,,0,
200405058,,"Luxembourg, Paräisser Plaz",,49.604082,6.130704,,,0,,,0,
200405059,,"Luxembourg, Gare Centrale (Tram)",,49.599939,6.133411,,,0,,,0,
200201007,,"Contern, Weiergewan",,49.596336,6.213843,,,0,,,0,
200201008,,"Contern, Rond Point Z.I.",,49.593607,6.215977,,,0,,,0,
200201005,,"Contern, Kuehne & Nagel",,49.596824,6.215420,,,0,,,0,
200201006,,"Contern, Millewee",,49.586910,6.231179,,,0,,,0,
200201003,,"Contern, Kiircheplaz",,49.585259,6.227619,,,0,,,0,
200405052,,"Luxembourg, Gare Centrale",,49.599092,6.132617,,,0,,,0,105
200201004,,"Contern, Kräizgaass",,49.584761,6.225572,,,0,,,0,
200405053,,"Luxembourg, Gare Centrale",,49.598609,6.132368,,,0,,,0,106
200201001,,"Contern, Birewee",,49.586490,6.223398,,,0,,,0,
200405050,,"Belair, LTPS / Siège",,49.619829,6.097293,,,0,,,0,
200201002,,"Contern, I.E.E.",,49.593507,6.222294,,,0,,,0,
200405051,,"Luxembourg, Place de Metz",,49.606885,6.128352,,,0,,,0,
110406002,,"Obereisenbach, Bongertswies",,50.008949,6.142011,,,0,,,0,
200201010,,"Contern, Paul Rischard",,49.601399,6.221984,,,0,,,0,
200417055,,"Kirchberg, Luxexpo",,49.636883,6.174931,,,0,,,0,5
200201011,,"Contern, Ieselslach",,49.594863,6.222189,,,0,,,0,
150303001,,"Ell, Arelerstrooss",,49.760951,5.858956,,,0,,,0,
200417058,,"Kirchberg, Rout Bréck - Pafendall  (Tram)",,49.618697,6.136686,,,0,,,0,
210502002,,"Ellange, Martialis",,49.520276,6.297449,,,0,,,0,
210502001,,Ellenger Gare,,49.515372,6.304697,,,0,,,0,
200417059,,"Kirchberg, Kierch",,49.629140,6.147195,,,0,,,0,
200417050,,"Kirchberg, Gare routière Luxexpo",,49.636375,6.174766,,,0,,,0,
200417052,,"Kirchberg, Luxexpo",,49.635423,6.175902,,,0,,,0,
200417051,,"Pfaffenthal-Kirchberg, Gare",,49.618936,6.132919,,,0,,,0,
150303002,,"Ell, Beim Musikssaul",,49.762920,5.853953,,,0,,,0,
200417053,,"Kirchberg, École européenne",,49.626074,6.152359,,,0,,,0,
150303003,,"Ell, Beim Schreider",,49.763250,5.859140,,,0,,,0,
200405045,,"Centre, Stäreplaz / Étoile (Bus)",,49.613509,6.119060,,,0,,,0,
200405046,,"Luxembourg, Gare Rocade",,49.600514,6.136658,,,0,,,0,
200405049,,"Luxembourg, Amélie",,49.613604,6.125036,,,0,,,0,
190401003,,"Dahlem, rue de Hivange",,49.598015,5.946459,,,0,,,0,
190401001,,"Dahlem, Um Eck",,49.597928,5.946907,,,0,,,0,
190401002,,"Dahlem, Um Pëtz",,49.600876,5.948176,,,0,,,0,
200417023,,"Kirchberg, Luxexpo Entrée Sud",,49.634681,6.169476,,,0,,,0,
150606006,,"Redange/Attert, Noojhemerstrooss",,49.767891,5.878064,,,0,,,0,
200417022,,"Kirchberg, Léon Thyes",,49.637289,6.165017,,,0,,,0,
150606007,,"Redange/Attert, Osperstrooss",,49.764996,5.889500,,,0,,,0,
110824001,,"Boevange, Wëntgerdall",,50.048391,5.929562,,,0,,,0,
200417025,,"Kirchberg, Mathias Tresch",,49.637583,6.169308,,,0,,,0,
150606004,,"Redange/Attert, Gemeng",,49.764317,5.888655,,,0,,,0,
200417024,,"Kirchberg, Marguerites",,49.623681,6.160767,,,0,,,0,
150606005,,"Redange/Attert, Lycée Atert",,49.769529,5.898489,,,0,,,0,
200417026,,"Kirchberg, Muguets",,49.626545,6.163827,,,0,,,0,
150606003,,"Redange, Gare",,49.764610,5.882178,,,0,,,0,
200417029,,"Kirchberg, Europaparlament / Parlement Européen",,49.620801,6.148305,,,0,,,0,
150606001,,"Redange/Attert, Bian",,49.764021,5.888368,,,0,,,0,
221102001,,"Bivange, Edward Steichen",,49.545783,6.137870,,,0,,,0,
200417021,,"Kirchberg, Léon Hengen",,49.623861,6.149442,,,0,,,0,
150606008,,"Redange/Attert, Schleisschen",,49.762973,5.894880,,,0,,,0,
200417020,,"Kirchberg, Labours",,49.629161,6.167788,,,0,,,0,
150606009,,"Redange/Attert, Schock",,49.765892,5.895402,,,0,,,0,
140702003,,"Warken, Rue de Burden",,49.857782,6.092583,,,0,,,0,
140702002,,"Warken, Café Kaell",,49.854790,6.092387,,,0,,,0,
140702001,,"Warken, Centre d'Education Diff.",,49.857768,6.088451,,,0,,,0,
221102002,,"Bivange, Schoul",,49.541083,6.135905,,,0,,,0,
160907003,,"Reckange/Mersch, Hosbich",,49.751289,6.076008,,,0,,,0,
160404001,,"Schoos, Um Hiervel",,49.751557,6.169687,,,0,,,0,
160907004,,"Reckange/Mersch, Hunnebourerstr.",,49.745573,6.084071,,,0,,,0,
150606010,,"Redange/Attert, Solupla",,49.759922,5.894172,,,0,,,0,
160907001,,"Reckange/Mersch, Barriär",,49.748234,6.052380,,,0,,,0,
140702009,,"Warken, Chapelle",,49.855246,6.091219,,,0,,,0,
160907002,,"Reckange/Mersch, Beim Bur",,49.752240,6.085170,,,0,,,0,
140702008,,"Warken, Rue de Welscheid",,49.859635,6.084011,,,0,,,0,
140702007,,"Warken, Cité Waarkdall 6",,49.860686,6.083238,,,0,,,0,
140702005,,"Warken, LTEtt (Annexe)",,49.857964,6.086575,,,0,,,0,
140702004,,"Warken, Cité Waarkdall",,49.860351,6.085638,,,0,,,0,
200417034,,"Kirchberg, Rehazenter",,49.628879,6.174300,,,0,,,0,
200417033,,"Kirchberg, Poutty Stein",,49.635586,6.168967,,,0,,,0,
200417036,,"Kirchberg, Réimerwee",,49.632365,6.167478,,,0,,,0,
200417035,,"Kirchberg, Rehazenter Parking",,49.627599,6.171618,,,0,,,0,
200417038,,"Kirchberg, Sichegronn",,49.628384,6.151532,,,0,,,0,
200417037,,"Kirchberg, Schmëdd",,49.628363,6.149234,,,0,,,0,
160907005,,"Reckange/Mersch, Schoul",,49.747444,6.080154,,,0,,,0,
200417039,,"Kirchberg, Avalon",,49.632316,6.160721,,,0,,,0,
160907006,,"Reckange/Mersch, Um neie Lehm",,49.751233,6.083759,,,0,,,0,
200417030,,"Kirchberg, Paul Noesen",,49.627289,6.143259,,,0,,,0,
200417032,,"Kirchberg, Pierre Werner",,49.631678,6.177656,,,0,,,0,
200417031,,"Kirchberg, Philharmonie / Mudam (Tram)",,49.619486,6.142026,,,0,,,0,
170206002,,"Zittig, Moulin",,49.735869,6.343616,,,0,,,0,
210105001,,Emeringerhaff,,49.539418,6.323253,,,0,,,0,
150103001,,"Hovelange, Bei Bitzesch",,49.722760,5.910756,,,0,,,0,
150103002,,"Hovelange, Op der Halt",,49.725002,5.900066,,,0,,,0,
170206001,,"Zittig, Kapell",,49.744612,6.343152,,,0,,,0,
141201001,,"Bigelbach, Kiirch",,49.860132,6.286987,,,0,,,0,
200405060,,"Luxembourg, Gare Centrale",,49.599969,6.134240,,,0,,,0,
190703004,,"Koerich, SES",,49.679553,5.945469,,,0,,,0,
200405061,,"Centre, Stäreplaz / Étoile (Tram)",,49.613676,6.119604,,,0,,,0,
190703002,,"Koerich, Gemeng",,49.670019,5.949310,,,0,,,0,
200405062,,"Centre, Adolphe Fischer",,49.599994,6.128023,,,0,,,0,
190703003,,"Koerich, Weidewee",,49.670089,5.952647,,,0,,,0,
190703001,,"Koerich, Fuurt",,49.670566,5.942428,,,0,,,0,
200503002,,"Hostert, Kierfecht",,49.655534,6.232675,,,0,,,0,
200503003,,"Hostert, Am Bruch",,49.657417,6.233940,,,0,,,0,
200503001,,"Hostert, Charlys Gare",,49.658672,6.231859,,,0,,,0,
150803003,,"Schandel, Viichtenerstrooss",,49.792211,5.978156,,,0,,,0,
150803001,,"Schandel, Kiirch",,49.791830,5.974941,,,0,,,0,
150803002,,"Schandel, Kreizung",,49.790328,5.971505,,,0,,,0,
180402001,,Potaschbierg,,49.677566,6.399476,,,0,,,0,
180402002,,"Potaschbierg, Z.I.",,49.679033,6.394712,,,0,,,0,
121006001,,"Pommerloch, Theis",,49.960420,5.859888,,,0,,,0,
121006003,,Pommerlach (Knauf),,49.963651,5.858924,,,0,,,0,
121006002,,"Pommerloch, Trëntelhaff",,49.959080,5.860212,,,0,,,0,
200303001,,"Hesperange, Am Keller",,49.573387,6.157324,,,0,,,0,
200303002,,"Hesperange, Cité Um Schlass",,49.572921,6.143904,,,0,,,0,
200303003,,"Hesperange, Holleschbierg",,49.577439,6.162581,,,0,,,0,
220402098,,"Esch-sur-Alzette, Schluechthaus",,49.509977,5.976044,,,0,,,0,
220402097,,"Esch-sur-Alzette, Bd. Berwart",,49.497233,5.987935,,,0,,,0,
200303004,,"Hesperange, Itziger Eck",,49.574425,6.160016,,,0,,,0,
200303005,,"Hesperange, Sprëtzenhaus",,49.571966,6.153685,,,0,,,0,
200303006,,"Hesperange, Urbengsschlass",,49.571491,6.159993,,,0,,,0,
200303007,,"Hesperange, Wollefsmillen",,49.577122,6.153745,,,0,,,0,
220402092,,"Esch-sur-Alzette, Rue Henri Dunant",,49.503255,5.981155,,,0,,,0,
220402091,,"Esch-sur-Alzette, Rue du X Sep.",,49.493450,5.979494,,,0,,,0,
220402096,,"Esch-sur-Alzette, Rue Victor Hugo",,49.496941,5.977787,,,0,,,0,
220402095,,"Esch-sur-Alzette, Rue Renaudin",,49.488046,5.976871,,,0,,,0,
200417066,,"Kirchberg, Alphonse Weicker (Tram)",,49.632177,6.170827,,,0,,,0,
140304001,,"Goebelsmühle, Gare routière",,49.921333,6.053131,,,0,,,0,
210302001,,"Filsdorf, Op der Plaz",,49.534238,6.247829,,,0,,,0,
200417061,,"Kirchberg, Philharmonie / Mudam (Bus)",,49.619929,6.141391,,,0,,,0,
120507001,,Tadler,,49.911210,5.992494,,,0,,,0,
200417060,,"Kirchberg, Simone de Beauvoir",,49.634920,6.159766,,,0,,,0,
210302002,,"Filsdorf, Wäschbour",,49.533105,6.245598,,,0,,,0,
120507002,,"Tadler, Kierfecht",,49.911292,5.997045,,,0,,,0,
140304003,,"Goebelsmühle, Op der Gafel",,49.920522,6.056288,,,0,,,0,
140304002,,"Goebelsmühle, Gare",,49.921142,6.053422,,,0,,,0,
220402087,,"Esch-sur-Alzette, Rue des Mines",,49.485503,5.975951,,,0,,,0,
220402086,,"Esch-sur-Alzette, Rue de Schifflange",,49.496454,5.989447,,,0,,,0,
160102001,,"Roost (Bissen), Mold Plant",,49.794064,6.098807,,,0,,,0,
190503001,,Kreizerbuch,,49.701549,5.915279,,,0,,,0,
110603001,,Goedange,,50.147325,6.012055,,,0,,,0,
160102002,,Rouscht,,49.786459,6.092926,,,0,,,0,
220402080,,"Esch-sur-Alzette, Rue Général Patton",,49.501741,5.976925,,,0,,,0,
220402083,,"Esch-sur-Alzette, Barbourg",,49.486374,5.972803,,,0,,,0,
220402082,,"Esch-sur-Alzette, Rue d'Audun",,49.489289,5.977609,,,0,,,0,
170706002,,"Osweiler, Haaptstrooss",,49.786681,6.442835,,,0,,,0,
170706001,,"Osweiler, Duerfplaz",,49.785379,6.440473,,,0,,,0,
150512006,,"Rambrouch, Gare",,49.830305,5.848982,,,0,,,0,
220402077,,"Belval, Porte de France",,49.502998,5.945336,,,0,,,0,
220402076,,"Esch-sur-Alzette, Bd Aloyse Meyer",,49.507864,5.992297,,,0,,,0,
150512005,,"Rambrouch, Schlass",,49.830413,5.842731,,,0,,,0,
150512004,,"Rambrouch, Riesenknäppchen",,49.824967,5.852862,,,0,,,0,
220402079,,"Esch-sur-Alzette, Raemerich",,49.509002,5.955365,,,0,,,0,
220402070,,"Esch-sur-Alzette, Peckeschhaff",,49.494370,5.968594,,,0,,,0,
170403002,,"Scheidgen, Hotschent",,49.783180,6.354241,,,0,,,0,
191002003,,"Septfontaines, Op Lauterbur",,49.685530,5.941863,,,0,,,0,
170403001,,"Scheidgen, Biweschland",,49.785323,6.369366,,,0,,,0,
191002001,,"Septfontaines, Schoul",,49.699276,5.964732,,,0,,,0,
170403003,,"Scheidgen, Veräinsbau",,49.781643,6.359021,,,0,,,0,
191002002,,"Septfontaines, Simmerfarm",,49.695656,5.987315,,,0,,,0,
220402072,,"Esch-sur-Alzette, Place N. Metz",,49.496398,5.986633,,,0,,,0,
110812002,,"Lentzweiler, An der Feckel",,50.067960,5.981744,,,0,,,0,
220402071,,"Esch-sur-Alzette, Place Benelux",,49.502819,5.971360,,,0,,,0,
110812001,,"Lentzweiler, Haaptstrooss",,50.069561,5.975172,,,0,,,0,
130203005,,"Brandenbourg, Vereinsbau",,49.911292,6.139265,,,0,,,0,
130203003,,"Brandenbourg, Laangwiss",,49.909056,6.141612,,,0,,,0,
130203004,,"Brandenbourg, Terminus",,49.913874,6.121447,,,0,,,0,
130203001,,"Brandenbourg, Bakes",,49.911631,6.136584,,,0,,,0,
130203002,,"Brandenbourg, Kapell",,49.910940,6.139941,,,0,,,0,
170604001,,"Herborn, Kiercheplaz",,49.747267,6.427667,,,0,,,0,
220301013,,"Dudelange, Butschebuerg",,49.491321,6.068030,,,0,,,0,
220301014,,"Dudelange, Casino",,49.472119,6.083549,,,0,,,0,
220301011,,"Dudelange, Rue Curie",,49.491699,6.099041,,,0,,,0,
220301012,,"Dudelange, Gare-Burange",,49.492410,6.086196,,,0,,,0,
220301010,,"Dudelange, Rue Jean Simon",,49.489692,6.083278,,,0,,,0,
220301019,,"Dudelange, Route de Kayl",,49.486511,6.072750,,,0,,,0,
170501001,,"Echternach, Alte Grenzbrücke",,49.812716,6.424989,,,0,,,0,
220301017,,"Dudelange, Jugendhaus",,49.482857,6.086584,,,0,,,0,
170203002,,"Hemstal, Kiirch",,49.739373,6.333611,,,0,,,0,
220301018,,"Dudelange, Dennewald",,49.491982,6.088100,,,0,,,0,
170203001,,"Hemstal, Am Ieweschten Duerf",,49.740981,6.337062,,,0,,,0,
170501003,,"Echternach, Belle Vue",,49.810751,6.415933,,,0,,,0,
220301015,,"Dudelange (Centre), Gare",,49.478696,6.082150,,,0,,,0,
170501002,,"Echternach, Bel Air",,49.819986,6.395280,,,0,,,0,
220301016,,"Dudelange, Centre Sportif",,49.485758,6.088911,,,0,,,0,
170501005,,"Echternach, Centre Ville",,49.811810,6.419046,,,0,,,0,
170501004,,"Echternach, Centre de secours",,49.808251,6.411131,,,0,,,0,
170501007,,"Echternach, Fielsmillen",,49.818075,6.406366,,,0,,,0,
170501006,,"Echternach, Charly's Halt",,49.810504,6.415779,,,0,,,0,
170501009,,"Echternach, Lycée",,49.813265,6.424196,,,0,,,0,
200204004,,"Oetrange, Prisong",,49.607583,6.241705,,,0,,,0,
200204005,,"Oetrange, Staefeld",,49.602644,6.267855,,,0,,,0,
200204006,,"Oetrange, Trengen Knapp",,49.599730,6.256876,,,0,,,0,
200204007,,"Oetrange, Gare",,49.602590,6.258335,,,0,,,0,
220301024,,"Dudelange, Gemeng",,49.478134,6.084448,,,0,,,0,
220301022,,"Dudelange, Gare",,49.482637,6.083214,,,0,,,0,
160802004,,"Blaschette, Fëschbecherstrooss",,49.703142,6.166871,,,0,,,0,
220301023,,"Dudelange (Usines), Gare routière",,49.473062,6.078481,,,0,,,0,
160802003,,"Blaschette, r.de Wormeldange",,49.699276,6.166583,,,0,,,0,
110804002,,"Brachtenbach, Om Bierig",,50.019040,5.903314,,,0,,,0,
220301020,,"Dudelange, Rue Gaffelt",,49.481723,6.080161,,,0,,,0,
160802002,,"Blaschette, Kreizung",,49.702252,6.164690,,,0,,,0,
220301021,,"Dudelange, Rue des Modeleurs",,49.494842,6.081300,,,0,,,0,
160802001,,"Blaschette, Op der Kräizung",,49.702536,6.166379,,,0,,,0,
110804001,,"Brachtenbach, Bei der Kirich",,50.020706,5.909476,,,0,,,0,
170501010,,"Echternach, Manertchen",,49.799244,6.452819,,,0,,,0,
120103001,,"Baschleiden, Flebour",,49.898772,5.811289,,,0,,,0,
170501012,,"Echternach, Nonnenmillen/Lac",,49.805830,6.405853,,,0,,,0,
220301028,,"Dudelange, Spidol",,49.470678,6.087776,,,0,,,0,
120103002,,Hareler Poteau,,49.907771,5.808773,,,0,,,0,
170501011,,"Echternach, Morgenstern",,49.810060,6.424922,,,0,,,0,
220301029,,"Dudelange, Kiirch",,49.479856,6.086748,,,0,,,0,
170501014,,"Echternach, Route d'Osweiler",,49.807598,6.429501,,,0,,,0,
220301026,,"Dudelange, Rue Ribeschpont",,49.493045,6.084598,,,0,,,0,
170501013,,"Echternach, Remparts",,49.810589,6.418374,,,0,,,0,
220301027,,"Dudelange, Greisendall",,49.463144,6.081915,,,0,,,0,
170501016,,"Echternach, Gare Centre",,49.810271,6.417390,,,0,,,0,
110701003,,"Beiler, Beim Krécks",,50.165086,6.090031,,,0,,,0,
170501015,,"Echternach, Ste Croix",,49.808780,6.430050,,,0,,,0,
110701002,,"Beiler, Bei der aler Schull",,50.164186,6.087887,,,0,,,0,
170501018,,"Echternach, Ermesinde",,49.815270,6.416081,,,0,,,0,
110701001,,"Beiler, Op der Halt",,50.160367,6.088778,,,0,,,0,
200204001,,"Oetrange, Gare routière",,49.602616,6.259053,,,0,,,0,
200204002,,"Oetrange, Kurzebierg",,49.594851,6.260139,,,0,,,0,
200204003,,"Oetrange, Éiter",,49.601387,6.260340,,,0,,,0,
110701004,,"Beiler, Kaesfurt",,50.153340,6.080846,,,0,,,0,
160904006,,"Mersch, Uewermiersch",,49.743023,6.096440,,,0,,,0,
200421006,,"Muhlenbach, Siwemuergen",,49.629193,6.117012,,,0,,,0,
160904007,,"Mersch, Lycée Ermesinde",,49.755162,6.111309,,,0,,,0,
160904008,,"Mersch, Mierscherbierg",,49.755607,6.099590,,,0,,,0,
160904009,,"Mersch, Beim Klouschter",,49.753371,6.102987,,,0,,,0,
120904001,,Lameschmillen,,49.963093,5.904063,,,0,,,0,
160904002,,"Mersch, Lankheck",,49.744852,6.096914,,,0,,,0,
120503001,,"Heischtergronn, Beim Bréckert",,49.904871,5.956436,,,0,,,0,
120904002,,"Paradiso, Gare",,49.965393,5.953148,,,0,,,0,
160904003,,"Mersch, Maartplaz",,49.747580,6.103804,,,0,,,0,
200421003,,"Muhlenbach, Eecher Schmelz",,49.627992,6.122277,,,0,,,0,
160904004,,"Mersch, Reckenerstrooss",,49.751873,6.097772,,,0,,,0,
200421004,,"Muhlenbach, Peiffeschbierg",,49.628388,6.113237,,,0,,,0,
160904005,,"Mersch, Stäereplaz",,49.750671,6.106189,,,0,,,0,
220804014,,"Pontpierre, Steewee",,49.531037,6.032590,,,0,,,0,
220804013,,"Pontpierre, Lëtzebuergerstr.",,49.539710,6.034014,,,0,,,0,
220804010,,"Pontpierre, Paschtoueschhaus",,49.534777,6.030387,,,0,,,0,
150507001,,"Holtz, Molkerei",,49.806389,5.790900,,,0,,,0,
150507002,,"Holtz, Um Bur",,49.809503,5.794851,,,0,,,0,
160904010,,"Mersch, Nic. Welter",,49.744310,6.100042,,,0,,,0,
160904011,,"Mersch, Gare",,49.751844,6.110298,,,0,,,0,
141204002,,"Wallendorf-Pont, Cité",,49.869670,6.279423,,,0,,,0,
141204001,,"Wallendorf-Pont, Bei der Bréck",,49.873364,6.290407,,,0,,,0,
151006002,,"Wahl, Kinnikshaff",,49.840321,5.910526,,,0,,,0,
151006001,,"Wahl, Gemeng",,49.835479,5.904061,,,0,,,0,
220301002,,"Dudelange, Rue Angeldall",,49.488878,6.069944,,,0,,,0,
220301003,,"Dudelange, Rue de Hellange",,49.493109,6.093944,,,0,,,0,
180303002,,"Flaxweiler, Op der Bréck",,49.666403,6.342524,,,0,,,0,
110301001,,"Fischbach/Heinerscheid, Bei Prëntzen",,50.073890,6.070943,,,0,,,0,
180303001,,"Flaxweiler, Bei Knuppeneck",,49.665330,6.343969,,,0,,,0,
220301008,,"Dudelange, Boulodrome P&R",,49.471693,6.078066,,,0,,,0,
220301009,,"Dudelange, Breiningerbierg",,49.481608,6.090221,,,0,,,0,
220301006,,"Dudelange, Birenger Barrière",,49.493158,6.085889,,,0,,,0,
220301007,,"Dudelange, Am Boujel",,49.490312,6.097922,,,0,,,0,
220301004,,"Dudelange, Rue Belair",,49.478515,6.093152,,,0,,,0,
220301005,,"Dudelange, Biereng",,49.492794,6.089267,,,0,,,0,
110403005,,"Hosingen, Bei der Kierch",,50.016139,6.091812,,,0,,,0,
110403006,,"Hosingen, Bayrischt",,50.019400,6.091992,,,0,,,0,
110403003,,"Hosingen, Z.A.E.R.",,50.005897,6.087322,,,0,,,0,
110403004,,"Hosingen, Parc Housen",,49.993118,6.098617,,,0,,,0,
110403001,,"Hosingen, Eesberwee",,50.012738,6.090720,,,0,,,0,
160401001,,"Angelsberg, Paafendall",,49.762557,6.160019,,,0,,,0,
110403002,,"Hosingen, Ewescht Duerf",,50.017072,6.092049,,,0,,,0,
110816001,,"Rumlange, Om Knäppchen",,50.078733,5.974343,,,0,,,0,
190302007,,"Dippach, Um Pull",,49.587562,5.985610,,,0,,,0,
220301050,,"Dudelange, Schmelz",,49.468499,6.081997,,,0,,,0,
190302005,,"Dippach, Op der Kopp",,49.587393,5.971907,,,0,,,0,
190302006,,"Dippach, Um Däich",,49.587510,5.988091,,,0,,,0,
220301057,,"Dudelange, Waldschoul",,49.483571,6.102449,,,0,,,0,
220301055,,"Dudelange, Rue Tattenberg",,49.478330,6.079742,,,0,,,0,
220301056,,"Dudelange, Centre Culturel / CNA",,49.474127,6.083982,,,0,,,0,
220301053,,"Dudelange, Skatepark P&R",,49.470581,6.079651,,,0,,,0,
190302003,,Dippëcherbierg,,49.588868,5.993266,,,0,,,0,
220301054,,"Dudelange, Soibelkaul",,49.495210,6.085187,,,0,,,0,
190302004,,"Dippach, Op der Haard",,49.578946,5.991220,,,0,,,0,
190302001,,"Dippach, Bei der Crèche",,49.587456,5.983597,,,0,,,0,
190302002,,"Dippach, Bei der Kapell",,49.587776,5.980685,,,0,,,0,
110104001,,"Urspelt, Knupp",,50.076739,6.044210,,,0,,,0,
110104002,,"Urspelt, Schlass",,50.074624,6.045248,,,0,,,0,
220301059,,"Dudelange, Maison de retraite",,49.489749,6.094834,,,0,,,0,
220301061,,"Dudelange, Rue du Parc",,49.486796,6.090824,,,0,,,0,
220804009,,"Pontpierre, Op der Bréck",,49.535488,6.026183,,,0,,,0,
220804008,,"Pontpierre, Koppbierg",,49.536310,6.028082,,,0,,,0,
220804007,,"Pontpierre, Bei der Kierch",,49.533701,6.028779,,,0,,,0,
140202001,,Bleesbréck,,49.871898,6.189227,,,0,,,0,
220804004,,"Pontpierre, Freschpesch",,49.533791,6.028760,,,0,,,0,
210601001,,"Remerschen, Al Schoul",,49.491125,6.352143,,,0,,,0,
220301068,,"Dudelange, Rue des Minières",,49.472938,6.076059,,,0,,,0,
220804003,,"Pontpierre, Pompjeesbau",,49.536611,6.026115,,,0,,,0,
220301069,,"Dudelange, Rue Fany Schumacher",,49.487891,6.091795,,,0,,,0,
220804002,,"Pontpierre, Leideleng",,49.540963,6.035846,,,0,,,0,
220301066,,"Dudelange, Rue des Bobineurs",,49.495316,6.075512,,,0,,,0,
220804001,,"Pontpierre, Beim Kueb",,49.537552,6.030882,,,0,,,0,
220301064,,"Dudelange, Route de Burange",,49.486523,6.084971,,,0,,,0,
220301065,,"Dudelange, Rue de la Fontaine",,49.479836,6.080950,,,0,,,0,
210601003,,"Remerschen, Kiosk",,49.488187,6.351114,,,0,,,0,
220301062,,"Dudelange, L.N.B. Annexe Alliance",,49.472229,6.073644,,,0,,,0,
210601002,,"Remerschen, Ennen am Doref",,49.486349,6.354513,,,0,,,0,
220301063,,"Dudelange, Lenkeschléi",,49.481162,6.101818,,,0,,,0,
220402132,,"Esch-sur-Alzette, Nonnewisen",,49.506614,5.978890,,,0,,,0,
220402131,,"Esch-sur-Alzette, Rue M. Müller-Tesch",,49.502039,5.967347,,,0,,,0,
220402130,,"Esch-sur-Alzette, Rue Michel Lentz",,49.499890,5.969469,,,0,,,0,
220402137,,"Esch-sur-Alzette, Rue Henri Koch",,49.509032,5.964026,,,0,,,0,
160502001,,Reuland,,49.752180,6.260638,,,0,,,0,
300000110,,"Bastogne, Hôtel de Ville",,50.002331,5.717507,,,0,,,0,
160904001,,"Mersch, Gare routière",,49.753054,6.110115,,,0,,,0,
300000111,,"Marvie, A la Boule (Glacier)",,49.991003,5.747152,,,0,,,0,
161005002,,"Schrondweiler, Um Woes",,49.804351,6.154793,,,0,,,0,
161005001,,"Schrondweiler, Schoul",,49.805782,6.158114,,,0,,,0,
220301036,,"Dudelange, Niddeschgaass",,49.480159,6.085198,,,0,,,0,
220402129,,"Esch-sur-Alzette, Porte des Sciences",,49.503914,5.947337,,,0,,,0,
220301033,,"Dudelange, Rue Antoine Zinnen",,49.478488,6.087796,,,0,,,0,
220301034,,"Dudelange, Lycée Nic Biever",,49.483279,6.090839,,,0,,,0,
220301031,,"Dudelange, rue Aloyse Kayser",,49.484727,6.075135,,,0,,,0,
500000109,,"Wittlich, Hauptbahnhof",,49.972978,6.943549,,,0,,,0,
220301032,,"Dudelange, Kräizbierg",,49.479039,6.099334,,,0,,,0,
500000106,,"Zewen, Kantstraße",,49.719586,6.582505,,,0,,,0,
220301030,,"Dudelange, Kierfecht",,49.483373,6.080312,,,0,,,0,
220104002,,"Huncherange, Kreizung",,49.517660,6.064354,,,0,,,0,
220104001,,"Huncherange, Kiirch",,49.516094,6.064310,,,0,,,0,
220104004,,"Huncherange, Rue d'Esch 1",,49.518279,6.069609,,,0,,,0,
220104003,,"Huncherange, R. Résistance",,49.517792,6.058211,,,0,,,0,
220301039,,"Dudelange, Porte d'Italie",,49.475044,6.080020,,,0,,,0,
220402126,,"Esch-sur-Alzette, Cité Jos Brebsom",,49.502220,5.965015,,,0,,,0,
220402125,,"Esch-sur-Alzette, Bd Pierre Krier",,49.501616,5.971130,,,0,,,0,
220301037,,"Dudelange, Nudelsfabrik",,49.485387,6.082015,,,0,,,0,
220301038,,"Dudelange, Rue de la Rivière",,49.476397,6.084427,,,0,,,0,
220402123,,"Esch-sur-Alzette, Auberge de Jeunesse",,49.493708,5.984201,,,0,,,0,
201003004,,"Helmsange, Tricentenaire",,49.662343,6.133250,,,0,,,0,
201003001,,"Helmsange, Barriär",,49.659965,6.135649,,,0,,,0,
201003002,,"Helmsange, Mercatoris",,49.665869,6.134290,,,0,,,0,
201003003,,"Heisdorf, Millewee",,49.668760,6.135160,,,0,,,0,
180106001,,"Roodt-sur-Syre, Barriär",,49.666295,6.304027,,,0,,,0,
180106003,,"Roodt-sur-Syre, Gare routière",,49.666003,6.302685,,,0,,,0,
180106002,,"Roodt-sur-Syre, Campus scolaire",,49.663495,6.298111,,,0,,,0,
180106005,,"Roodt-sur-Syre, Rothoicht",,49.659211,6.287262,,,0,,,0,
180106004,,"Roodt-sur-Syre, Hunnemillen",,49.666014,6.305082,,,0,,,0,
180106007,,"Roodt-sur-Syre, Bowengsbierg",,49.666656,6.301346,,,0,,,0,
220301046,,"Dudelange, Rue Alexandre Fleming",,49.490544,6.089967,,,0,,,0,
220402119,,"Esch-sur-Alzette, Place Lodève",,49.502620,5.979923,,,0,,,0,
180106006,,"Roodt-sur-Syre, Z.I. Rothoicht",,49.657500,6.292582,,,0,,,0,
220301047,,"Dudelange, Rue Pasteur",,49.490433,6.093426,,,0,,,0,
220402118,,"Esch-sur-Alzette, Av. de la Gare",,49.493479,5.983691,,,0,,,0,
180106009,,"Roodt-sur-Syre, Gare",,49.666540,6.302918,,,0,,,0,
220301044,,"Dudelange, Rue des Lamineurs",,49.496066,6.081655,,,0,,,0,
220402117,,"Esch-sur-Alzette, Rue A. Useldinger",,49.505186,5.972429,,,0,,,0,
180106008,,"Roodt-sur-Syre, Rue d'Olingen",,49.670425,6.302897,,,0,,,0,
220301045,,"Dudelange, Rue des Mouleurs",,49.495175,6.077385,,,0,,,0,
220402116,,"Esch-sur-Alzette, Centre hospitalier E. Mayrisch",,49.502049,5.982542,,,0,,,0,
220301042,,"Dudelange, Route de Luxembourg",,49.489046,6.082626,,,0,,,0,
220301040,,"Dudelange, Pullewee",,49.486295,6.091282,,,0,,,0,
220301041,,"Dudelange (Usines), Gare",,49.472609,6.079433,,,0,,,0,
300000138,,"Differt, Institut Cardijn",,49.613410,5.808559,,,0,,,0,
220402111,,"Esch-sur-Alzette, Wäschbour",,49.487674,5.978137,,,0,,,0,
300000137,,"Arlon, Clinique",,49.678544,5.821528,,,0,,,0,
160204001,,"Openthalt, Finsterthal",,49.753969,6.035647,,,0,,,0,
220301048,,"Dudelange, Scherr",,49.488096,6.062892,,,0,,,0,
220301049,,"Dudelange, Schlakemillen",,49.465323,6.081620,,,0,,,0,
220402112,,"Esch-sur-Alzette, Wobrécken",,49.503512,5.976194,,,0,,,0,
150107002,,"Oberpallen, Schnuddelbierg",,49.729704,5.843362,,,0,,,0,
300000132,,"Aubange, Gare routière",,49.564185,5.799033,,,0,,,0,
150107001,,"Oberpallen, Bréck",,49.730037,5.842396,,,0,,,0,
300000133,,"Sterpenich/Arlon, Ikea",,49.637624,5.887932,,,0,,,0,
300000136,,"Arlon, Athénée Royale",,49.674900,5.810051,,,0,,,0,
220301093,,"Dudelange, Riedgen 3",,49.493536,6.110617,,,0,,,0,
221303002,,"Sanem, Kierch",,49.547614,5.927743,,,0,,,0,
220301094,,"Dudelange, CFL Multimodal",,49.498296,6.097698,,,0,,,0,
221303001,,"Sanem, Cité Tornaco",,49.544864,5.922081,,,0,,,0,
140902001,,"Hoscheid-Dickt, Um Pëtz",,49.970009,6.089379,,,0,,,0,
220301091,,"Dudelange, Riedgen 1",,49.485414,6.111386,,,0,,,0,
221303004,,"Sanem, Op Lohr",,49.552381,5.927665,,,0,,,0,
220301092,,"Dudelange, Riedgen 2",,49.489821,6.112065,,,0,,,0,
221303003,,"Sanem, Niederkuererstrooss",,49.540855,5.913112,,,0,,,0,
140902002,,"Hoscheid-Dickt, Um Wald",,49.976790,6.090713,,,0,,,0,
220402108,,"Esch-sur-Alzette, Burgronn",,49.492622,5.993301,,,0,,,0,
220402107,,"Esch-sur-Alzette, Rue de l'Alzette",,49.494853,5.982570,,,0,,,0,
200413001,,"Grund, Stadgronn-Bréck",,49.608391,6.135379,,,0,,,0,
220402106,,"Esch-sur-Alzette, Tramschapp",,49.506421,5.958814,,,0,,,0,
220402105,,"Esch-sur-Alzette, Rue des Tramways",,49.504062,5.965591,,,0,,,0,
220301095,,"Dudelange, LNS",,49.497842,6.087172,,,0,,,0,
220402109,,"Esch-sur-Alzette, Iewescht Homescht",,49.497541,5.947541,,,0,,,0,
220402100,,"Esch-sur-Alzette, Piscine municipale",,49.500142,5.977355,,,0,,,0,
220402104,,"Esch-sur-Alzette, Place Stalingrad",,49.495290,5.972115,,,0,,,0,
220402102,,"Esch-sur-Alzette, Rue de l'Eglise",,49.497329,5.982666,,,0,,,0,
150515006,,"Wolwelange, Ermitage 2",,49.830480,5.776913,,,0,,,0,
150515003,,"Wolwelange, Spëtzt",,49.827979,5.767552,,,0,,,0,
150515004,,Wolwëner Halt,,49.827056,5.773177,,,0,,,0,
221303009,,"Sanem, Zentrum",,49.548331,5.929662,,,0,,,0,
150515001,,"Wolwelange, Ennescht Duerf",,49.827228,5.757728,,,0,,,0,
150704002,,"Saeul, Kiëm",,49.726514,5.986972,,,0,,,0,
150515002,,"Wolwelange, Kiosk",,49.827475,5.761119,,,0,,,0,
150704003,,"Saeul, Gemeng",,49.726615,5.985980,,,0,,,0,
221303005,,"Sanem, Place Tornaco",,49.546867,5.926020,,,0,,,0,
221303007,,"Sanem, Schlass",,49.543936,5.931514,,,0,,,0,
110504001,,Roder,,50.055077,6.081885,,,0,,,0,
110607002,,"Wilwerdange, Schoul",,50.138153,6.020927,,,0,,,0,
500000112,,"Schweich, B53",,49.815869,6.753740,,,0,,,0,
110607001,,"Wilwerdange, Kiirch",,50.139232,6.022343,,,0,,,0,
121002001,,"Bohey, Um Weiher",,49.972747,5.842402,,,0,,,0,
500000110,,Schweich (Deutschland),,49.831063,6.740339,,,0,,,0,
110607003,,"Wilwerdange, Station",,50.142595,6.017025,,,0,,,0,
500000115,,"Igel, Kirche",,49.709081,6.552619,,,0,,,0,
500000113,,"Merzig, Hilbringer Brücke",,49.441870,6.627153,,,0,,,0,
500000114,,"Maldingen, Kirche",,50.232964,6.030543,,,0,,,0,
500000118,,"Saarburg, Im Fichtenhain",,49.600914,6.531452,,,0,,,0,
200401001,,"Bambësch, Centre Sportif",,49.632071,6.110485,,,0,,,0,
211002001,,"Schwebsingen, Centre",,49.511855,6.356564,,,0,,,0,
211002002,,"Schwebsingen, Op der Hoh",,49.508180,6.355974,,,0,,,0,
161001003,,"Cruchten, Heemeschbaach",,49.801358,6.141750,,,0,,,0,
500000140,,"Trier, Südbahnhof",,49.744781,6.634670,,,0,,,0,
220301071,,"Dudelange, Rue Jacques Thiel",,49.491514,6.095599,,,0,,,0,
161001004,,"Cruchten, Neistrooss",,49.798993,6.130145,,,0,,,0,
220301072,,"Dudelange, Mayrisch Saint-Hubert",,49.479632,6.100390,,,0,,,0,
161001002,,"Cruchten, Haaptstrooss",,49.799036,6.129365,,,0,,,0,
220301070,,"Dudelange, Rue Grand-Duc Adolphe",,49.470856,6.084107,,,0,,,0,
180512001,,"Rodenbourg, Am Duerf",,49.688757,6.288154,,,0,,,0,
180512002,,"Rodenbourg, An der Schleed",,49.686730,6.290347,,,0,,,0,
180512003,,"Junglinster, P+R",,49.718636,6.269520,,,0,,,0,
500000148,,"Trier, Konstantin Basilika",,49.753803,6.642548,,,0,,,0,
220301079,,"Dudelange, Fohrmann",,49.477288,6.083366,,,0,,,0,
500000149,,Föhren,,49.857127,6.767466,,,0,,,0,
220301078,,"Dudelange, Square Mayrisch",,49.482384,6.085673,,,0,,,0,
220301075,,"Dudelange, Rue de la Vallée",,49.482934,6.080365,,,0,,,0,
220301073,,"Dudelange, Rue Schortgen",,49.486241,6.070281,,,0,,,0,
220301074,,"Dudelange, Scherrwee",,49.485950,6.066597,,,0,,,0,
300000105,,"Benonchamps, Centre",,50.004907,5.808468,,,0,,,0,
300000104,,"Benonchamps, N° 19",,50.003716,5.811283,,,0,,,0,
300000107,,"Wardin, rue de Bastogne 22",,49.986254,5.780388,,,0,,,0,
300000106,,"Harzy, Centre",,49.992851,5.795061,,,0,,,0,
300000109,,"Wardin, École",,49.990556,5.790483,,,0,,,0,
130102002,,"Gralingen, Schoul",,49.936772,6.099551,,,0,,,0,
150205001,,"Platen, Roudbach",,49.778915,5.934053,,,0,,,0,
300000108,,"Wardin, rue de Bastogne 46",,49.988999,5.782033,,,0,,,0,
130102001,,"Gralingen, Am Bréill",,49.935097,6.104892,,,0,,,0,
300000101,,"Mageret, École",,50.010678,5.789072,,,0,,,0,
161001007,,"Cruchten, Schlaederhaff",,49.803099,6.123050,,,0,,,0,
300000100,,"Aubange, Zoning",,49.560761,5.794596,,,0,,,0,
161001008,,"Cruchten, Gare",,49.796287,6.120105,,,0,,,0,
300000103,,"Benonchamps, Route de Mageret 2a",,50.005613,5.804708,,,0,,,0,
161001005,,"Cruchten, Schléf",,49.796998,6.124079,,,0,,,0,
300000102,,"Benonchamps, Pont",,49.999383,5.810760,,,0,,,0,
161001006,,"Cruchten, Zaneschhaff",,49.803979,6.114310,,,0,,,0,
220301082,,"Dudelange (Ville), Gare",,49.483383,6.083183,,,0,,,0,
210903001,,"Trintange, Trenteng",,49.572360,6.281112,,,0,,,0,
221303011,,"Sanem, Uerschterhaff",,49.539657,5.943201,,,0,,,0,
221303010,,"Sanem, W.S.A.",,49.540334,5.953832,,,0,,,0,
180603001,,"Manternach, Gare routière",,49.706779,6.423745,,,0,,,0,
500000138,,"Trier, Messepark P+R",,49.739778,6.622754,,,0,,,0,
180603002,,"Manternach, Gare",,49.706507,6.423260,,,0,,,0,
220301088,,"Dudelange, Rue Nic Biever",,49.484396,6.096642,,,0,,,0,
220301089,,"Dudelange, Rue Léon Weyrich",,49.484354,6.093538,,,0,,,0,
220301086,,"Dudelange, Rue Marcel Schmit",,49.488859,6.085578,,,0,,,0,
220301087,,"Dudelange, Eurohub",,49.497068,6.113710,,,0,,,0,
500000139,,"Trier, St. Matthias",,49.739722,6.631849,,,0,,,0,
220301084,,"Dudelange, Schoul Ribeschpont",,49.493235,6.081782,,,0,,,0,
220202001,,"Lasauvage, Kajibi",,49.526244,5.838209,,,0,,,0,
220202003,,"Lasauvage, Schoul",,49.523805,5.835229,,,0,,,0,
220202002,,"Lasauvage, Kierch",,49.521979,5.836218,,,0,,,0,
500000162,,"Losheim, Haagstraße",,49.507229,6.750601,,,0,,,0,
500000163,,"Trier, Busbahnhof",,49.757577,6.652113,,,0,,,0,
500000160,,"Losheim, Globus Baumarkt",,49.504693,6.759448,,,0,,,0,
500000161,,"Losheim, Globus Wolfsborn",,49.510819,6.756212,,,0,,,0,
190101020,,"Bascharage, Sicon",,49.562537,5.900001,,,0,,,0,
190101021,,"Bascharage, Widdems Bierg",,49.569816,5.906387,,,0,,,0,
500000164,,Ehrang Ort,,49.809722,6.688665,,,0,,,0,
190101022,,"Bascharage, Théophile Aubart",,49.560260,5.885899,,,0,,,0,
190101023,,"Bascharage, Rue Nicolas Meyers",,49.560108,5.895646,,,0,,,0,
190101024,,"Bascharage, Ecocenter",,49.562538,5.927318,,,0,,,0,
190101027,,"Bascharage/Sanem, Gare",,49.558417,5.924589,,,0,,,0,
110411001,,"Bockholtz/Hosingen, Kiirch",,50.011553,6.051620,,,0,,,0,
160806001,,Klingelscheuer,,49.692822,6.167541,,,0,,,0,
120803001,,"Neunhausen, An der Urt",,49.876276,5.885539,,,0,,,0,
150402004,,"Grosbous, Op der Baach",,49.828211,5.965982,,,0,,,0,
150402005,,"Grosbous, Police",,49.829969,5.967485,,,0,,,0,
150402002,,"Grosbous, Kiircheplaz",,49.826200,5.965120,,,0,,,0,
150402003,,"Grosbous, Kiirfënt",,49.825200,5.968145,,,0,,,0,
130207001,,"Tandel, Schoul",,49.894126,6.181752,,,0,,,0,
150402006,,"Grosbous, Sprëtzenhaus",,49.826631,5.966095,,,0,,,0,
130207002,,"Tandel, Veianerstrooss",,49.896986,6.182100,,,0,,,0,
221001001,,"Ehlange, Am Brill",,49.545828,6.015475,,,0,,,0,
150402001,,"Grosbous, Beim Iwwerlaf",,49.829350,5.961057,,,0,,,0,
221001002,,"Ehlange, Am Pull",,49.548979,6.012794,,,0,,,0,
500000151,,Pfalzel,,49.780398,6.682892,,,0,,,0,
500000152,,Quint,,49.825925,6.704565,,,0,,,0,
500000155,,"Trier, Gilbertstraße",,49.747588,6.636019,,,0,,,0,
500000156,,"Euren, Eisenbahnstraße",,49.737043,6.613519,,,0,,,0,
500000153,,Salmtal,,49.921808,6.839395,,,0,,,0,
500000154,,Sehlem (Kr. Wittlich),,49.907381,6.823576,,,0,,,0,
500000159,,"Losheim, Abzweig im Haag",,49.507794,6.761213,,,0,,,0,
220701009,,"Leudelange, Kamellebierg",,49.570537,6.063063,,,0,,,0,
220701008,,"Leudelange, Gruef",,49.562893,6.065666,,,0,,,0,
220701001,,"Leudelange, Beetebuergerwee",,49.562102,6.066073,,,0,,,0,
220701003,,"Leudelange, Edeleck",,49.565652,6.079761,,,0,,,0,
220701002,,"Leudelange, Bowent",,49.580288,6.061592,,,0,,,0,
220701005,,"Leudelange, Gare routière",,49.586733,6.059627,,,0,,,0,
220701004,,"Leudelange, Galgebösch",,49.569554,6.059082,,,0,,,0,
220701007,,"Leudelange, Grasbösch",,49.577054,6.091352,,,0,,,0,
220701006,,"Leudelange, Gemeng",,49.567524,6.062746,,,0,,,0,
190602009,,"Kehlen, Zone Industrielle 1",,49.663132,6.018847,,,0,,,0,
200425009,,"Rollingergrund, Steekaul",,49.624165,6.097617,,,0,,,0,
120606003,,"Wilwerwiltz, Schoulkauz",,49.993829,5.998629,,,0,,,0,
200425008,,"Rollingergrund, Stand de Tir",,49.624292,6.100531,,,0,,,0,
200425005,,"Rollingergrund, Biischtefabrick",,49.615139,6.116582,,,0,,,0,
120606001,,"Wilwerwiltz, Gare routière",,49.988432,6.001086,,,0,,,0,
200425006,,"Rollingergrund, Roudebierg",,49.624774,6.104699,,,0,,,0,
120606002,,"Wilwerwiltz, Tomm",,49.986846,6.007952,,,0,,,0,
190101001,,"Bascharage, Arcades",,49.565731,5.908056,,,0,,,0,
221106002,,"Roeser, Gemeng",,49.540890,6.145206,,,0,,,0,
130301011,,"Vianden, Plank",,49.931182,6.202627,,,0,,,0,
190602001,,"Kehlen, Bei Fiewer",,49.667517,6.034408,,,0,,,0,
221106003,,"Roeser, Kiirfecht",,49.547327,6.150127,,,0,,,0,
130301012,,"Vianden, Ruoderwee",,49.931934,6.220408,,,0,,,0,
220701019,,"Leudelange, Schaefert",,49.572350,6.079624,,,0,,,0,
190101003,,"Bascharage, Bomecht",,49.558680,5.888697,,,0,,,0,
190602002,,"Kehlen, Enneschte Buer",,49.667297,6.028974,,,0,,,0,
221106004,,"Roeser, Op der Hoehl",,49.548314,6.151120,,,0,,,0,
190101004,,"Bascharage, Bommelscheier",,49.571992,5.920512,,,0,,,0,
190602003,,"Kehlen, Op der Héicht",,49.666103,6.035048,,,0,,,0,
221106005,,"Roeser, Oradour",,49.544658,6.149535,,,0,,,0,
120606006,,"Wilwerwiltz, Bei der Barriär",,49.988323,5.999656,,,0,,,0,
130301010,,"Vianden, Place Engelmann",,49.934512,6.201570,,,0,,,0,
190101005,,"Bascharage, Bommertbesch",,49.572958,5.924007,,,0,,,0,
190602004,,"Kehlen, Schaarfeneck",,49.670758,6.035888,,,0,,,0,
170304001,,"Weilerbach, Laufenwehr",,49.839964,6.376068,,,0,,,0,
130301015,,"Vianden, Schoul",,49.934182,6.207275,,,0,,,0,
190101006,,"Bascharage, Brasserie",,49.567975,5.912576,,,0,,,0,
190602005,,"Kehlen, Um Knapp",,49.667381,6.038588,,,0,,,0,
170304002,,Weilerbach,,49.833106,6.383477,,,0,,,0,
190101007,,"Bascharage, Treff/Op Acker",,49.563991,5.904902,,,0,,,0,
190602006,,"Kehlen, Zone Industrielle 3",,49.664399,6.012186,,,0,,,0,
130301013,,"Vianden, Scheierhaff 1",,49.941591,6.216102,,,0,,,0,
221106001,,"Roeser, Bei der Uelzecht",,49.540156,6.143549,,,0,,,0,
130301014,,"Vianden, Scheierhaff 2",,49.942321,6.216883,,,0,,,0,
190101009,,"Bascharage, Eglise",,49.568122,5.906965,,,0,,,0,
190801003,,"Bridel, Schanz",,49.648970,6.084447,,,0,,,0,
220701011,,"Leudelange, Op der Strooss",,49.563347,6.069746,,,0,,,0,
190801004,,"Bridel, Stuff",,49.652883,6.083367,,,0,,,0,
190801001,,"Bridel, Berk",,49.659751,6.078522,,,0,,,0,
220701013,,"Leudelange, Queesche Wee",,49.570411,6.062365,,,0,,,0,
190801002,,"Bridel, Flamo",,49.658974,6.081590,,,0,,,0,
220701016,,"Leudelange, Wäschbur",,49.566972,6.064411,,,0,,,0,
220701015,,"Leudelange, Stiédswee",,49.568924,6.069011,,,0,,,0,
220701018,,"Leudelange, Foyer",,49.569587,6.081338,,,0,,,0,
190801005,,"Bridel, Taverne",,49.657191,6.082625,,,0,,,0,
190602010,,"Kehlen, Zone Industrielle 2",,49.662473,6.013870,,,0,,,0,
220701017,,"Leudelange, Pëssendall",,49.572234,6.060471,,,0,,,0,
200425003,,"Rollingergrund, Bei der Fiels",,49.617253,6.114076,,,0,,,0,
200425004,,"Rollingergrund, Beim Klomp",,49.617998,6.111096,,,0,,,0,
200425002,,"Reckenthal, Gäertnerei",,49.624703,6.092530,,,0,,,0,
210203001,,"Emerange, Centre Culturel",,49.487420,6.291236,,,0,,,0,
220701010,,"Leudelange, Ketzelach",,49.579639,6.057314,,,0,,,0,
190101010,,"Bascharage, Continentale Gare",,49.559176,5.926063,,,0,,,0,
190101011,,"Bascharage/Sanem, Gare routière",,49.558267,5.924391,,,0,,,0,
190101012,,"Bascharage, Industriezon",,49.573947,5.929078,,,0,,,0,
190602011,,"Kehlen, Katterwang",,49.678362,6.044770,,,0,,,0,
190101013,,"Bascharage, Jules Hemmer",,49.560196,5.885862,,,0,,,0,
130301001,,Mont St. Nicolas,,49.946754,6.166328,,,0,,,0,
110305001,,Kaesfurt,,50.092298,6.073176,,,0,,,0,
190101016,,"Bascharage, Place Schuman",,49.565359,5.907610,,,0,,,0,
191101003,,"Grass, rue de Kleinbettingen",,49.631493,5.892451,,,0,,,0,
130301004,,"Vianden, Bréck",,49.933721,6.207204,,,0,,,0,
190101017,,"Bascharage, Prince Henri",,49.571126,5.918409,,,0,,,0,
130301005,,"Vianden, Camping Moulin",,49.927345,6.220365,,,0,,,0,
190101018,,"Bascharage, R.P. André Siebenbour",,49.560415,5.893994,,,0,,,0,
130301002,,"Vianden, Aale Moart",,49.938088,6.203983,,,0,,,0,
190101019,,"Bascharage, Rue de Schouweiler",,49.573176,5.923066,,,0,,,0,
191101002,,"Grass, Um Camping",,49.630896,5.891339,,,0,,,0,
130301003,,"Vianden, Am Bousebierg",,49.939709,6.208154,,,0,,,0,
130301008,,"Vianden, Larei",,49.936909,6.206197,,,0,,,0,
130301009,,"Vianden, Piscine",,49.940302,6.209611,,,0,,,0,
130301006,,"Vianden, Gare",,49.933484,6.212653,,,0,,,0,
130301007,,"Vianden, Gemeng",,49.933383,6.204339,,,0,,,0,
200425012,,"Rollingergrund, Villeroy & Boch",,49.628177,6.106948,,,0,,,0,
200425010,,"Rollingergrund, Val Fleuri",,49.619101,6.107749,,,0,,,0,
200425011,,"Rollingergrund, Val St André",,49.621976,6.105779,,,0,,,0,
220701021,,"Leudelange, Gare",,49.587050,6.059345,,,0,,,0,
220701020,,"Leudelange, LaLux",,49.566508,6.076611,,,0,,,0,
220203029,,"Niederkorn, Route de Bascharage",,49.540515,5.892036,,,0,,,0,
220203027,,"Niederkorn, Rue de Longwy",,49.534681,5.889227,,,0,,,0,
150501006,,"Arsdorf, Bei der Kapell",,49.861777,5.844777,,,0,,,0,
220203028,,"Niederkorn, Hahneboesch",,49.544365,5.901719,,,0,,,0,
150501007,,"Arsdorf, Op der Lee",,49.858688,5.846954,,,0,,,0,
150902005,,"Vichten, Hemeschbaach",,49.801454,6.007394,,,0,,,0,
150501004,,"Arsdorf, Um Knupp",,49.862543,5.844838,,,0,,,0,
150902006,,"Vichten, Ohligsfeld",,49.802546,6.001975,,,0,,,0,
150501005,,"Arsdorf, Misärshaff",,49.866182,5.829819,,,0,,,0,
150902003,,"Vichten, Bäerig",,49.800407,5.997882,,,0,,,0,
150501002,,"Arsdorf, Am Gronn",,49.859088,5.849753,,,0,,,0,
150902004,,"Vichten, Gemeng",,49.804277,5.994140,,,0,,,0,
150501003,,"Arsdorf, An der Gaass",,49.858927,5.842207,,,0,,,0,
200404007,,"Bonnevoie, Demy Schlechter",,49.594995,6.143403,,,0,,,0,
190604003,,"Meispelt, Kuesselt",,49.692146,6.060728,,,0,,,0,
200404006,,"Bonnevoie, Chalop",,49.600279,6.149351,,,0,,,0,
190604002,,"Meispelt, Kräizwee",,49.685960,6.058023,,,0,,,0,
150501001,,"Arsdorf, Am Duerf",,49.860391,5.842766,,,0,,,0,
200404009,,"Bonnevoie, Leschte Steiwer / Dernier Sol",,49.594299,6.136330,,,0,,,0,
150902007,,"Vichten, Schoul",,49.802835,5.999219,,,0,,,0,
200404008,,"Bonnevoie, Dernier Sol",,49.594913,6.136792,,,0,,,0,
120406003,,"Nocher-Route, An der Delt",,49.948119,5.960987,,,0,,,0,
120406004,,"Nocher, Schoul",,49.946953,5.977288,,,0,,,0,
200404001,,"Verlorenkost, Al Molkerei",,49.605530,6.136862,,,0,,,0,
120406005,,"Nocher, Um Knupp",,49.947084,5.971982,,,0,,,0,
120406006,,"Nocher, Welscheedgen",,49.945189,5.974861,,,0,,,0,
200404003,,"Bonnevoie, Anatole France",,49.598717,6.149483,,,0,,,0,
120406007,,"Nocher, Kautebaacherwee",,49.946720,5.981819,,,0,,,0,
200404004,,"Bonnevoie, Baden-Powell",,49.599995,6.150599,,,0,,,0,
220203023,,"Niederkorn, Mathendahl",,49.543237,5.893218,,,0,,,0,
120406001,,"Nocher-Route, Zenner",,49.946510,5.965187,,,0,,,0,
120406002,,"Nocher-Route, Trin",,49.948264,5.956586,,,0,,,0,
200416001,,"Findel, Gréiwelscheierhaff",,49.625815,6.198118,,,0,,,0,
200416002,,"Kalchesbréck, Reno",,49.621944,6.187275,,,0,,,0,
120601001,,"Alscheid, Haut",,49.969659,6.005351,,,0,,,0,
120601002,,"Alscheid, Village",,49.970245,6.007839,,,0,,,0,
120601003,,"Alscheid, Schoulbierg",,49.970162,6.010201,,,0,,,0,
220101003,,"Abweiler, Cité",,49.533064,6.076466,,,0,,,0,
180802002,,"Ehnen, Bromelt",,49.597308,6.380193,,,0,,,0,
180802001,,"Ehnen, An den Aessen",,49.601990,6.385935,,,0,,,0,
180802004,,"Ehnen, Lehboesch",,49.604781,6.389620,,,0,,,0,
220101001,,Abweiler,,49.533879,6.081670,,,0,,,0,
180802003,,"Ehnen, Ieselsbreck",,49.600830,6.387935,,,0,,,0,
180802006,,"Ehnen, Lehboesch 2",,49.604700,6.392795,,,0,,,0,
180802005,,"Ehnen, Neie Wee",,49.601803,6.388008,,,0,,,0,
180802007,,"Ehnen, Puddel",,49.600628,6.386963,,,0,,,0,
170701001,,"Dickweiler, Duerfplaz",,49.783312,6.472550,,,0,,,0,
221003001,,"Pissange, Wäschbur",,49.549000,6.001440,,,0,,,0,
121009002,,"Winseler, Rosskämmchen",,49.967845,5.884664,,,0,,,0,
140801004,,"Niederfeulen, route d'Arlon",,49.854219,6.043902,,,0,,,0,
121009001,,"Winseler, Beim Burren",,49.966985,5.891163,,,0,,,0,
140801005,,"Niederfeulen, Atelier",,49.857313,6.037855,,,0,,,0,
120304003,,"Selscheid, Ennëscht Wis",,50.017293,5.947714,,,0,,,0,
200404029,,"Bonnevoie, Nic Martha",,49.592998,6.148876,,,0,,,0,
120304002,,"Selscheid, Roudebësch",,50.019912,5.948776,,,0,,,0,
200404028,,"Bonnevoie, Neufchâteau",,49.590492,6.140649,,,0,,,0,
140801001,,"Niederfeulen, Belle Vue",,49.854793,6.043449,,,0,,,0,
200302001,,"Fentange, Duelemerbach",,49.569935,6.151216,,,0,,,0,
140801002,,"Niederfeulen, Faubourg",,49.852478,6.051118,,,0,,,0,
200302002,,"Fentange, Fuertwee",,49.564125,6.152025,,,0,,,0,
140801003,,"Niederfeulen, Mairie",,49.854042,6.045749,,,0,,,0,
200404021,,"Bonnevoie, Jules Fischer",,49.592282,6.146468,,,0,,,0,
200404020,,"Bonnevoie, Jeanne d'Arc",,49.596711,6.147677,,,0,,,0,
200404023,,"Bonnevoie, Kofferfabrick",,49.600930,6.145105,,,0,,,0,
200404022,,"Bonnevoie, Kaltreis",,49.593658,6.150830,,,0,,,0,
200302003,,"Fentange, Hiehl",,49.567430,6.152510,,,0,,,0,
200404025,,"Verlorenkost, Lavoisier",,49.605216,6.140895,,,0,,,0,
200302004,,"Fentange, Op de Leemen",,49.560904,6.147980,,,0,,,0,
200404024,,"Verlorenkost, Laboratoire",,49.604643,6.138091,,,0,,,0,
200404027,,"Bonnevoie, Lycée Technique de Bonnevoie/Quais",,49.591165,6.141662,,,0,,,0,
200404026,,"Bonnevoie, Léon XIII",,49.596990,6.137847,,,0,,,0,
191001001,,"Greisch, Op der Quaert",,49.710001,5.986774,,,0,,,0,
150513001,,Riesenhaff,,49.840217,5.815702,,,0,,,0,
170404001,,Wolpert,,49.762826,6.352086,,,0,,,0,
190901008,,"Capellen, Eechterfeld",,49.641891,6.011542,,,0,,,0,
110502001,,"Marnach, Beim Cube",,50.054249,6.062304,,,0,,,0,
190901009,,"Capellen, Pafebruch",,49.640891,6.013903,,,0,,,0,
110502002,,"Marnach, Beim Sender",,50.043292,6.077236,,,0,,,0,
200506006,,"Rameldange, Op der Bunn",,49.661421,6.229458,,,0,,,0,
200506005,,"Rameldange, Bounert",,49.664105,6.238966,,,0,,,0,
190901004,,"Capellen, Police",,49.644214,5.992516,,,0,,,0,
200506004,,"Rameldange, Beim Bësch",,49.665842,6.229997,,,0,,,0,
110502005,,"Marnach, Geschäftszenter",,50.052484,6.072178,,,0,,,0,
190901005,,"Capellen, Ponts & Chaussées",,49.646149,5.977364,,,0,,,0,
200506003,,"Rameldange, Beiebierg",,49.669575,6.234096,,,0,,,0,
110502006,,"Marnach, Bei der Kierch",,50.052919,6.060918,,,0,,,0,
190901002,,"Capellen, Hireknapp",,49.641528,6.001686,,,0,,,0,
200506002,,"Rameldange, Rëtsch",,49.665648,6.242177,,,0,,,0,
110502003,,"Marnach, Dosberstrooss",,50.050103,6.073357,,,0,,,0,
190901003,,"Capellen, Klouschter",,49.645916,5.985996,,,0,,,0,
200506001,,"Rameldange, Am Duerf",,49.662387,6.228849,,,0,,,0,
110502004,,"Marnach, Fëschberstrooss",,50.066812,6.068496,,,0,,,0,
221105001,,"Peppange, Duerfplaz",,49.523495,6.126872,,,0,,,0,
200404018,,"Bonnevoie, Izeger Knupp",,49.595945,6.150171,,,0,,,0,
221105002,,"Peppange, Kirchwois",,49.527223,6.132790,,,0,,,0,
200404017,,"Bonnevoie, Huese Vic",,49.603719,6.137093,,,0,,,0,
221105003,,"Peppange, Musée",,49.523979,6.129704,,,0,,,0,
200404019,,"Bonnevoie, Jean Jacoby",,49.598384,6.146915,,,0,,,0,
200404014,,"Bonnevoie, Gabriel Lippmann",,49.599087,6.142596,,,0,,,0,
200404013,,"Bonnevoie, Fraternité",,49.599168,6.140059,,,0,,,0,
200404016,,"Bonnevoie, Hippodrome",,49.593314,6.139059,,,0,,,0,
190604001,,"Meispelt, Bei Mëllesch",,49.690058,6.055709,,,0,,,0,
110502009,,"Marnach, Pënnik",,50.063956,6.066574,,,0,,,0,
110502007,,"Marnach, Munzerstrooss",,50.049419,6.058435,,,0,,,0,
190901010,,"Capellen, Hirebesch",,49.641750,6.006078,,,0,,,0,
110502008,,"Marnach, Op der Bréck",,50.054735,6.067276,,,0,,,0,
141003001,,Freckeisen,,49.801567,6.259810,,,0,,,0,
220901012,,"Lamadelaine, Bei der Millen",,49.551442,5.858914,,,0,,,0,
220901011,,"Lamadelaine, Gare",,49.553384,5.860878,,,0,,,0,
220901010,,"Lamadelaine, Tëtelbierg",,49.544673,5.849200,,,0,,,0,
210102004,,"Bous, Kierch",,49.555328,6.329270,,,0,,,0,
210102003,,"Bous, Kapell",,49.554472,6.325735,,,0,,,0,
220901013,,"Lamadelaine, Wisestrooss",,49.550180,5.855842,,,0,,,0,
210102002,,"Bous, Herdermillen",,49.556070,6.338052,,,0,,,0,
170803002,,Müllerthal/Möllerdall,,49.790712,6.306766,,,0,,,0,
170803003,,"Mullerthal, Schiessentümpel (Parking)",,49.780013,6.296995,,,0,,,0,
210102001,,"Bous, Enner dem Pavé",,49.555666,6.333773,,,0,,,0,
200404041,,"Kirchberg, Mischekopp",,49.630753,6.151311,,,0,,,0,
110821003,,"Wincrange, Op der Loh",,50.051259,5.909539,,,0,,,0,
200404039,,Lycée Bouneweg / PE prov. Quai 9-10,,49.589705,6.140100,,,0,,,0,
110821004,,"Wincrange, Ecole",,50.060056,5.922989,,,0,,,0,
110821005,,"Wincrange, Béigener Strooss",,50.053178,5.915032,,,0,,,0,
110808001,,"Doennange, Haaptstrooss",,50.061248,5.956578,,,0,,,0,
110821006,,"Wincrange, Centre Médical",,50.058549,5.921465,,,0,,,0,
110821001,,"Wincrange, Bei der Kapell",,50.051488,5.918117,,,0,,,0,
110821002,,"Wincrange, Haaptstrooss",,50.055305,5.918221,,,0,,,0,
200404032,,"Bonnevoie, Lycée Bouneweg PE",,49.590662,6.139519,,,0,,,0,
200404031,,"Bonnevoie, Lycée Bouneweg (Tram)",,49.590327,6.138694,,,0,,,0,
200404034,,"Bonnevoie, Rotonde",,49.599514,6.137298,,,0,,,0,
120703002,,"Harlange, Bréck",,49.930545,5.788077,,,0,,,0,
200404033,,"Bonnevoie, Pont-Remy",,49.594543,6.144398,,,0,,,0,
120703001,,"Harlange, Bei der Schoul",,49.932004,5.786182,,,0,,,0,
200404036,,"Bonnevoie, Virchow",,49.601725,6.139425,,,0,,,0,
200404035,,"Bonnevoie, Vannérus",,49.597477,6.141528,,,0,,,0,
200404038,,"Bonnevoie, Wisestrooss",,49.597909,6.144451,,,0,,,0,
200404037,,"Bonnevoie, Willibrord",,49.593854,6.140896,,,0,,,0,
200404030,,"Verlorenkost, Général Patton",,49.607786,6.142198,,,0,,,0,
220203007,,"Niederkorn, Maison de Retraite",,49.546705,5.889043,,,0,,,0,
220203008,,"Niederkorn, Péitengerwee",,49.540036,5.890601,,,0,,,0,
220203005,,"Niederkorn, Wagner Koepges",,49.531304,5.891418,,,0,,,0,
220203006,,"Niederkorn, Gare",,49.536807,5.893985,,,0,,,0,
220203009,,"Niederkorn, Moartplatz",,49.534889,5.891259,,,0,,,0,
150102002,,"Elvange/Beckerich, Schoul",,49.724355,5.916927,,,0,,,0,
150102001,,"Elvange/Beckerich, Gesanksbau",,49.724505,5.919541,,,0,,,0,
220203003,,"Niederkorn, Gare routière",,49.536077,5.893935,,,0,,,0,
220203004,,"Niederkorn, Cité de la Chiers",,49.543655,5.889707,,,0,,,0,
220203001,,"Niederkorn, Aale Stadion",,49.538761,5.904133,,,0,,,0,
220203002,,"Niederkorn, Altersheim",,49.546500,5.889112,,,0,,,0,
140307003,,"Michelau, Op der Sauer",,49.894877,6.092749,,,0,,,0,
151002002,,"Buschrodt, Schoul",,49.826446,5.933119,,,0,,,0,
220203018,,"Niederkorn, Gielen Botter",,49.533242,5.871237,,,0,,,0,
140307004,,"Michelau, Willspull",,49.888001,6.095139,,,0,,,0,
151002001,,Buschrodt,,49.826043,5.934549,,,0,,,0,
140307001,,"Michelau, Gare",,49.896651,6.092099,,,0,,,0,
220203016,,"Niederkorn, CHEM 1",,49.533583,5.885854,,,0,,,0,
140307002,,"Michelau, Kiirch",,49.897416,6.091022,,,0,,,0,
220203017,,"Niederkorn, Spillplaz",,49.530373,5.874572,,,0,,,0,
140307005,,"Michelau, Bei Schreiwesch",,49.899407,6.088270,,,0,,,0,
140307006,,"Michelau, Gare routière",,49.897036,6.091324,,,0,,,0,
110407003,,"Rodershausen, Millewee",,50.032906,6.128577,,,0,,,0,
220203011,,"Niederkorn, Schoul",,49.535453,5.891472,,,0,,,0,
220203014,,"Niederkorn, Hondsterrain",,49.530489,5.874869,,,0,,,0,
220203015,,Fond de Gras,,49.533534,5.863726,,,0,,,0,
220203012,,"Niederkorn, Suessemerwee",,49.537499,5.899333,,,0,,,0,
110407001,,"Rodershausen, Kiirch",,50.036485,6.129956,,,0,,,0,
220203013,,"Niederkorn, Franzousekräiz",,49.528138,5.860838,,,0,,,0,
110407002,,"Rodershausen, Um Weier",,50.040561,6.131808,,,0,,,0,
180306001,,"Oberdonven, Am Duerf",,49.649761,6.399587,,,0,,,0,
140701013,,"Ettelbruck, Rue de Warken 49",,49.848587,6.097587,,,0,,,0,
110813001,,"Lullange, Haaptstrooss",,50.058489,5.942332,,,0,,,0,
130108003,,Groësteen,,49.946911,6.148168,,,0,,,0,
141202002,,"Hoesdorf, Veräinsbau",,49.882745,6.256329,,,0,,,0,
140701018,,"Ettelbruck, H.v.Landewyck",,49.839699,6.097953,,,0,,,0,
140701016,,"Ettelbruck, Gare routière",,49.848609,6.107812,,,0,,,0,
140701015,,"Ettelbruck, Ecole Primaire",,49.845887,6.098960,,,0,,,0,
141202001,,"Hoesdorf, Kranzenhaff",,49.892141,6.235284,,,0,,,0,
160301007,,"Colmar-Berg, Usines",,49.804815,6.091979,,,0,,,0,
160301008,,"Colmar-Berg, Usine Hyosung",,49.804127,6.105100,,,0,,,0,
160301005,,"Colmar-Berg, Goldbierg",,49.810112,6.096235,,,0,,,0,
210301001,,"Dalheim, Hossegaass",,49.540657,6.261652,,,0,,,0,
160301006,,"Colmar-Berg, Raedelsboesch",,49.796691,6.098094,,,0,,,0,
210301002,,"Dalheim, Poste",,49.542823,6.256664,,,0,,,0,
160301003,,"Colmar-Berg, Faubourg",,49.805894,6.095208,,,0,,,0,
160301004,,"Colmar-Berg, Gare",,49.815019,6.101071,,,0,,,0,
160301001,,"Colmar-Berg, C. Administratif",,49.803796,6.091192,,,0,,,0,
160301002,,"Colmar-Berg, Centre",,49.811917,6.097169,,,0,,,0,
140701024,,"Ettelbruck, Poste",,49.847806,6.102671,,,0,,,0,
140701023,,"Ettelbruck, LTEtt Gare routière",,49.850242,6.099742,,,0,,,0,
140701022,,"Ettelbruck, Gare",,49.848735,6.108180,,,0,,,0,
120707003,,"Nothum, Schumann",,49.945497,5.878941,,,0,,,0,
140701021,,"Ettelbruck, L.T.Salentiny",,49.850273,6.099184,,,0,,,0,
120707002,,"Nothum, Molkerei",,49.940882,5.881261,,,0,,,0,
140701020,,"Ettelbruck, Centre Hospitalier du Nord",,49.853096,6.094075,,,0,,,0,
210301003,,"Dalheim, Waasserklapp",,49.546861,6.255470,,,0,,,0,
120707001,,"Nothum, Duerfstrooss",,49.940933,5.883836,,,0,,,0,
210301004,,"Dalheim, Gemeng",,49.543166,6.258982,,,0,,,0,
160301009,,"Colmar-Berg, Z.I. Jean Piret",,49.804052,6.103172,,,0,,,0,
160908002,,"Rollingen, Veräinsbau",,49.741197,6.113708,,,0,,,0,
140701028,,"Warken, Rue Bourschterbach",,49.858434,6.089552,,,0,,,0,
160908001,,"Rollingen, Lëtzebuergerstr.",,49.735626,6.116523,,,0,,,0,
140701026,,"Ettelbruck, Rond Point",,49.843623,6.098720,,,0,,,0,
140701025,,"Ettelbruck, Place du Marché",,49.845931,6.096411,,,0,,,0,
210501003,,"Altwies, Bourgässel",,49.510017,6.255282,,,0,,,0,
210501004,,"Altwies, Millbaach",,49.507692,6.260427,,,0,,,0,
160301011,,"Colmar-Berg, rue d'Ettelbruck",,49.812871,6.097891,,,0,,,0,
210501001,,"Altwies, An der Kaz",,49.509117,6.257543,,,0,,,0,
210501002,,"Altwies, Beckeschmillen",,49.509344,6.250069,,,0,,,0,
170705001,,"Steinheim, An der Uecht",,49.818957,6.476004,,,0,,,0,
160301018,,"Colmar-Berg, Piscine",,49.811522,6.093272,,,0,,,0,
160301016,,"Colmar-Berg, rue Martzen 2",,49.816477,6.086385,,,0,,,0,
160301017,,"Colmar-Berg, Z.I. Rond-Point",,49.805806,6.102094,,,0,,,0,
160301014,,"Colmar-Berg, place Pemmers",,49.813632,6.087029,,,0,,,0,
160301015,,"Colmar-Berg, rue Martzen 1",,49.818241,6.086766,,,0,,,0,
160301013,,"Welsdorf, rue des Champs",,49.817341,6.091783,,,0,,,0,
140701034,,"Ettelbruck, Apdikt Petry",,49.845938,6.098484,,,0,,,0,
140701031,,"Ettelbruck, Rue du Deich (CHNP)",,49.843799,6.096414,,,0,,,0,
140701039,,"Ettelbruck, Rue Prince Jean",,49.848136,6.100787,,,0,,,0,
140701038,,"Ettelbruck, Rue Pierre Krack",,49.852533,6.093163,,,0,,,0,
160301020,,"Colmar-Berg, rue de l'Alzette",,49.812727,6.097913,,,0,,,0,
160101007,,"Bissen, Steekräiz",,49.786883,6.073697,,,0,,,0,
160101008,,"Bissen, Um Sand",,49.787421,6.059422,,,0,,,0,
160101009,,"Bissen, Z.A.C. Klengbousbierg",,49.788408,6.086737,,,0,,,0,
160101003,,"Bissen, Geiwels",,49.791843,6.071661,,,0,,,0,
180204002,,Breinertknupp,,49.712453,6.335017,,,0,,,0,
140701045,,"Ettelbruck, Zone Industrielle",,49.839615,6.094606,,,0,,,0,
160101004,,"Bissen, Kiirch",,49.787689,6.066798,,,0,,,0,
180204001,,Breinert,,49.711970,6.342576,,,0,,,0,
140701044,,"Ettelbruck, Cité Patton 2",,49.850560,6.079799,,,0,,,0,
160101005,,"Bissen, Op der Millen",,49.795030,6.074624,,,0,,,0,
160101006,,"Bissen, Henckels",,49.789649,6.064609,,,0,,,0,
140701042,,"Ettelbruck, Cité Lopert 2",,49.850906,6.076773,,,0,,,0,
140701040,,"Ettelbruck, Serv Industriels",,49.849865,6.096175,,,0,,,0,
160101001,,"Bissen, ArcelorMittal S.A.",,49.784237,6.058045,,,0,,,0,
160101002,,"Bissen, Kräizung",,49.789073,6.063171,,,0,,,0,
110103003,,"Reuler, Hôh",,50.052781,6.033946,,,0,,,0,
110103002,,"Reuler, Duerf",,50.056753,6.036244,,,0,,,0,
120902001,,"Weidingen, Erpeldangerstrooss/Knupp",,49.974727,5.939669,,,0,,,0,
110103001,,"Reuler, Centre Scolaire",,50.061634,6.037858,,,0,,,0,
150302001,,"Colpach-Haut, Pompjeesbau",,49.767493,5.819474,,,0,,,0,
200408005,,"Clausen, Plateau Altmunster",,49.612748,6.139859,,,0,,,0,
200408004,,"Clausen, Melusina",,49.611373,6.141393,,,0,,,0,
200408003,,"Clausen, Malakoff",,49.615172,6.146585,,,0,,,0,
200408002,,"Neudorf, Fixmer",,49.618994,6.156760,,,0,,,0,
180505001,,"Eisenborn, Am Duerf",,49.691778,6.184118,,,0,,,0,
160101010,,"Bissen, Innovation Campus",,49.786270,6.083280,,,0,,,0,
200408008,,"Clausen, Tour Jacob",,49.611780,6.142546,,,0,,,0,
200408007,,"Clausen, Ste Cunégonde",,49.614330,6.141275,,,0,,,0,
200408006,,"Clausen, Rumm",,49.610778,6.139171,,,0,,,0,
190901001,,"Capellen, Gare",,49.638498,5.982382,,,0,,,0,
200408001,,"Clausen, Clausener Bréck",,49.613483,6.143416,,,0,,,0,
120402001,,"Buederscheid, Bitschtermillen",,49.932557,5.939527,,,0,,,0,
120402002,,"Buederscheid, Village",,49.933970,5.941263,,,0,,,0,
140502002,,Ermsdorf,,49.828584,6.221778,,,0,,,0,
200701007,,"Munsbach, Schlass Minsbech",,49.631222,6.260854,,,0,,,0,
200701006,,"Munsbach, Aisvull",,49.641089,6.274098,,,0,,,0,
140502001,,"Ermsdorf, Buntewee",,49.830114,6.217671,,,0,,,0,
161101001,,"Ansembourg, Kapell",,49.702316,6.040750,,,0,,,0,
170101009,,"Beaufort, Um Bierg",,49.843313,6.288694,,,0,,,0,
170101008,,"Beaufort, Halerstrooss",,49.843517,6.270181,,,0,,,0,
170101005,,"Beaufort, Iewescht Heed",,49.848158,6.277376,,,0,,,0,
170101004,,"Beaufort, Huelewee",,49.832821,6.296262,,,0,,,0,
170101007,,"Beaufort, Reisduerferstrooss",,49.846627,6.284599,,,0,,,0,
170101006,,"Beaufort, Op der Gare",,49.837107,6.290668,,,0,,,0,
170101001,,"Beaufort, Aispist",,49.840766,6.289031,,,0,,,0,
110602001,,Drinklange,,50.134228,6.015250,,,0,,,0,
170101003,,"Beaufort, Härewiss",,49.833569,6.292479,,,0,,,0,
170101002,,"Beaufort, Ennescht Heed",,49.844916,6.277614,,,0,,,0,
200701005,,"Munsbach, Parc d'Activité Syrdall",,49.638355,6.268031,,,0,,,0,
200701004,,"Munsbach, Gare routière",,49.630768,6.269065,,,0,,,0,
200701003,,"Munsbach, Minsber Baach",,49.633922,6.267005,,,0,,,0,
200701002,,"Munsbach, Kulturzentrum",,49.630414,6.267783,,,0,,,0,
170705002,,"Steinheim, Maeleck",,49.814221,6.481992,,,0,,,0,
200701001,,"Munsbach, Gare",,49.630556,6.268481,,,0,,,0,
170705003,,"Steinheim, Spillschoul",,49.819524,6.475182,,,0,,,0,
110801001,,"Allerborn, Kräizung",,50.034630,5.872477,,,0,,,0,
110801002,,"Allerborn, Duerefstrooss",,50.035530,5.870156,,,0,,,0,
110801003,,"Allerborn, Bläiminnestrooss",,50.036208,5.877934,,,0,,,0,
121005002,,"Noertrange, Um Dréicht",,49.979274,5.909330,,,0,,,0,
121005001,,"Noertrange, Hekt",,49.980652,5.906005,,,0,,,0,
170205001,,"Rippig, Rippigerkopp",,49.746380,6.309084,,,0,,,0,
170205002,,Rippig,,49.738142,6.322407,,,0,,,0,
190702002,,"Goetzingen, Kreiz",,49.662380,5.978769,,,0,,,0,
190702001,,"Goetzingen, Kiirch",,49.659749,5.981025,,,0,,,0,
200502002,,"Ernster, Engelshaff",,49.673895,6.243970,,,0,,,0,
200502001,,"Ernster, Duerfplaz",,49.679431,6.248288,,,0,,,0,
200502003,,"Ernster, Naasswiss",,49.682543,6.247474,,,0,,,0,
150605002,,"Ospern, Wäschbur",,49.783553,5.901108,,,0,,,0,
150605001,,"Ospern, Kiirch",,49.780707,5.909737,,,0,,,0,
190305001,,"Bettange-sur-Mess, Dippecherstrooss",,49.575914,5.989497,,,0,,,0,
140701001,,"Ettelbruck, Anc. Clinique",,49.847857,6.103280,,,0,,,0,
221101001,,"Berchem, Gare",,49.542667,6.133752,,,0,,,0,
140701009,,"Ettelbruck, Cité Patton 1",,49.848781,6.083802,,,0,,,0,
160405002,,Koedange,,49.733999,6.209086,,,0,,,0,
140701008,,"Ettelbruck, Cité Lopert 1",,49.850276,6.072456,,,0,,,0,
140701007,,"Warken, Cité Bourschterbach",,49.860705,6.087189,,,0,,,0,
140701006,,"Ettelbruck, Hall Omnisports",,49.841039,6.093268,,,0,,,0,
210602002,,"Schengen, Koerech",,49.470473,6.364080,,,0,,,0,
210602001,,"Schengen, Ennen am Doref",,49.473177,6.365881,,,0,,,0,
210602005,,"Schengen, Um Haff",,49.469443,6.358006,,,0,,,0,
210602004,,"Schengen, Séckerbaach",,49.475466,6.366062,,,0,,,0,
210602003,,"Schengen, Schoul",,49.469564,6.361713,,,0,,,0,
220702002,,"Leudelange, Ackerheek",,49.583748,6.058990,,,0,,,0,
220402067,,"Esch-sur-Alzette, Op Zaepert",,49.506777,5.968946,,,0,,,0,
220702001,,"Leudelange, Schléiwenhaff",,49.578003,6.057716,,,0,,,0,
220402066,,"Esch-sur-Alzette, Op der Léier",,49.504197,5.984855,,,0,,,0,
220402065,,"Esch-sur-Alzette, Nossbierg",,49.491803,5.995354,,,0,,,0,
220402064,,"Esch-sur-Alzette, Neiduerf",,49.495966,5.990085,,,0,,,0,
160905001,,"Moesdorf, Kiirch",,49.768665,6.114881,,,0,,,0,
220402062,,"Esch-sur-Alzette, Lycée Guillaume Kroll",,49.509183,5.964653,,,0,,,0,
220402061,,"Esch-sur-Alzette, EIDE",,49.496134,5.974784,,,0,,,0,
220402060,,"Esch-sur-Alzette, Lycée Tech.Lal.",,49.510711,5.984523,,,0,,,0,
150804002,,"Useldange, Raiffeisekeess",,49.771055,5.982098,,,0,,,0,
150804003,,"Useldange, Spuerkeess",,49.769754,5.980512,,,0,,,0,
150804001,,"Useldange, Beim Gärdner",,49.764779,5.977390,,,0,,,0,
220402055,,"Esch-sur-Alzette, Lycée des Garçons",,49.499824,5.981726,,,0,,,0,
220402054,,"Esch-sur-Alzette, Leesberg",,49.499886,5.993422,,,0,,,0,
220402053,,"Esch-sur-Alzette, Lallenger Schoul",,49.510435,5.990481,,,0,,,0,
220402059,,"Esch-sur-Alzette, Lycée H. Clement",,49.501856,5.977194,,,0,,,0,
220402052,,"Esch-sur-Alzette, Lallenger Kiirch",,49.507108,5.989884,,,0,,,0,
220402050,,"Esch-sur-Alzette, Grand-rue",,49.496853,5.982668,,,0,,,0,
140201003,,"Bettendorf, Schlass",,49.876589,6.221459,,,0,,,0,
140201002,,"Bettendorf, Gemeng",,49.876112,6.217338,,,0,,,0,
140201001,,"Bettendorf, Elick",,49.876104,6.212884,,,0,,,0,
200419041,,"Limpertsberg, Theater (Tram)",,49.617642,6.125338,,,0,,,0,
110805001,,"Crendal, Duerefstrooss",,50.056464,5.895901,,,0,,,0,
220402045,,"Esch-sur-Alzette, Passerelle Gaalgebierg",,49.492928,5.983628,,,0,,,0,
220402044,,"Esch-sur-Alzette, Rue de l'Hôpital",,49.501602,5.980207,,,0,,,0,
220402042,,"Esch-sur-Alzette, Hiehl",,49.484865,5.977716,,,0,,,0,
150106004,,"Noerdange, Bei der Post",,49.741540,5.922404,,,0,,,0,
180201001,,"Wecker, Grousswiss",,49.699151,6.380890,,,0,,,0,
220402049,,"Esch-sur-Alzette, Clinique Ste Marie",,49.501005,5.986640,,,0,,,0,
150106003,,"Noerdange, Beim Kiirfecht",,49.740902,5.924457,,,0,,,0,
220402048,,"Esch-sur-Alzette, Kierfecht Lall.",,49.511030,5.987764,,,0,,,0,
220402047,,"Esch-sur-Alzette, Kazebierg",,49.480095,5.977996,,,0,,,0,
150106005,,"Noerdange, Scheiweswies",,49.738037,5.922959,,,0,,,0,
220402046,,"Esch-sur-Alzette, Gare",,49.493911,5.985087,,,0,,,0,
180201005,,"Biwer, Haaptstrooss 2",,49.705956,6.371535,,,0,,,0,
180201004,,"Biwer, Mairie",,49.706074,6.372777,,,0,,,0,
150106002,,"Noerdange, A Batzent",,49.744113,5.919367,,,0,,,0,
180201003,,"Biwer, Klosmillen",,49.713309,6.358652,,,0,,,0,
150106001,,"Noerdange, Ale Pompjesbau",,49.742677,5.928301,,,0,,,0,
180201002,,"Biwer, Haaptstrooss",,49.702444,6.376121,,,0,,,0,
190301004,,"Dippach-Reckange, Gare",,49.572519,5.995253,,,0,,,0,
161004001,,"Oberglabach, Kapell",,49.784569,6.149339,,,0,,,0,
140303001,,"Schlindermanderscheid, Um Friedbësch",,49.951546,6.055776,,,0,,,0,
190301001,,"Bettange-sur-Mess, Bei der Barriär",,49.572786,5.996164,,,0,,,0,
190301003,,"Bettange-sur-Mess, Këscht",,49.576306,5.992793,,,0,,,0,
220402034,,"Esch-sur-Alzette, Gare routière",,49.494813,5.986205,,,0,,,0,
220402033,,"Esch-sur-Alzette, Fettmeth",,49.504744,5.975482,,,0,,,0,
220402032,,"Esch-sur-Alzette, Ennescht Homescht",,49.494726,5.959180,,,0,,,0,
220402031,,"Esch-sur-Alzette, Place Pierre Ponath",,49.477395,5.979336,,,0,,,0,
220402037,,"Esch-sur Alzette, E.P.M.C.",,49.501007,5.986722,,,0,,,0,
220402036,,"Esch-sur-Alzette, Pl. Hôtel de Ville",,49.496203,5.985346,,,0,,,0,
220402035,,"Esch-sur-Alzette, Place de la Paix",,49.504593,5.984181,,,0,,,0,
201002001,,Biirgerkräiz,,49.646422,6.097997,,,0,,,0,
220402030,,"Esch-sur-Alzette, Bruchschoul",,49.502367,5.968528,,,0,,,0,
110505002,,"Siebenaler, Bei der Kierch",,50.009671,6.025142,,,0,,,0,
220803025,,"Mondercange, Schwämm",,49.529325,5.983128,,,0,,,0,
180508001,,"Gonderange, Am Duerf",,49.692933,6.243697,,,0,,,0,
220803023,,"Mondercange, Rommelterhiel",,49.528481,5.987341,,,0,,,0,
220803022,,"Mondercange, Police",,49.533201,5.988585,,,0,,,0,
180508003,,"Gonderange, Mierchen",,49.699683,6.246838,,,0,,,0,
220803021,,"Mondercange, Pafenheck",,49.531102,5.990884,,,0,,,0,
110505001,,"Siebenaler, Am Ieweschten Duerf",,50.011383,6.025595,,,0,,,0,
180508002,,"Gonderange, Eeschëlerstr.",,49.692839,6.253355,,,0,,,0,
110302001,,Grindhausen/Grandsen,,50.083576,6.058022,,,0,,,0,
160803002,,"Bofferdange, Bouferknupp",,49.682289,6.138011,,,0,,,0,
160803001,,"Bofferdange, Maison de Retraite",,49.689311,6.140371,,,0,,,0,
220402022,,"Esch-sur-Alzette, Cité Verte",,49.509721,5.968668,,,0,,,0,
220402021,,"Esch-sur-Alzette, rue Large provisoire",,49.496637,5.981977,,,0,,,0,
220402020,,"Esch-sur-Alzette, Cinquantenaire",,49.507360,5.983652,,,0,,,0,
220402027,,"Esch-sur-Alzette, Dellhéicht",,49.500551,5.982358,,,0,,,0,
220402026,,"Esch-sur-Alzette, Bibliothèque mun.",,49.499186,5.984859,,,0,,,0,
190402007,,"Garnich, Holzemerstroos",,49.611463,5.952873,,,0,,,0,
220402025,,"Esch-sur-Alzette, Conserv. de musique",,49.489497,5.975580,,,0,,,0,
211001003,,"Bech-Kleinmacher, Furwee",,49.527687,6.354535,,,0,,,0,
190402005,,"Garnich, Schmëtt",,49.616456,5.952160,,,0,,,0,
190402004,,"Garnich, Rixegoard",,49.615380,5.957419,,,0,,,0,
211001005,,"Bech-Kleinmacher, Esplanade",,49.531724,6.355616,,,0,,,0,
190402002,,"Garnich, Am Brill",,49.613569,5.950152,,,0,,,0,
160402002,,"Fischbach/Mersch, Paschtoueschgaart",,49.745945,6.185605,,,0,,,0,
190402001,,"Garnich, Botterkräiz",,49.610877,5.949739,,,0,,,0,
160402001,,"Fischbach/Mersch, Kräizerbierg",,49.747037,6.190581,,,0,,,0,
211001002,,"Bech-Kleinmacher, Centre",,49.531949,6.354429,,,0,,,0,
170603001,,"Givenich, Am Duerf",,49.747106,6.478834,,,0,,,0,
200412002,,"Gasperich, Beethoven",,49.589641,6.118336,,,0,,,0,
200412001,,"Gasperich, Al Gaasperech",,49.592234,6.121311,,,0,,,0,
220402019,,"Esch-sur-Alzette, rue Nelson Mandela",,49.490239,5.978849,,,0,,,0,
220803033,,"Mondercange, Ecole",,49.528942,5.986041,,,0,,,0,
220402018,,"Esch-sur-Alzette, Rue Large",,49.497368,5.980357,,,0,,,0,
220803031,,"Mondercange, A Bosselesch",,49.532722,5.987453,,,0,,,0,
220803030,,"Mondercange, Dokter",,49.531131,5.990620,,,0,,,0,
220105006,,"Noertzange, Gare",,49.508006,6.050881,,,0,,,0,
220105004,,"Noertzange, Lohrwies",,49.509809,6.051049,,,0,,,0,
150508003,,"Hostert, Stade Jos Becker",,49.658528,6.228084,,,0,,,0,
220402012,,"Esch-sur-Alzette, Bd. Hubert Clement",,49.510297,5.985903,,,0,,,0,
200412009,,"Gasperich, Gaasperecher Bierg",,49.592774,6.116975,,,0,,,0,
220105005,,"Noertzange, Rue Principale",,49.509834,6.060857,,,0,,,0,
200412008,,"Gasperich, François Hogenberg",,49.587557,6.120963,,,0,,,0,
220105002,,"Noertzange, Gare routière",,49.507941,6.050471,,,0,,,0,
150508001,,"Hostert, Folschterwee",,49.810225,5.866595,,,0,,,0,
200412007,,"Gasperich, Déportation",,49.593795,6.127986,,,0,,,0,
220105003,,"Noertzange, Route de Kayl",,49.507888,6.058957,,,0,,,0,
150508002,,"Hostert, Wäschbur",,49.808711,5.866484,,,0,,,0,
200412006,,"Gasperich, Cloche d'Or",,49.583476,6.115351,,,0,,,0,
130101001,,"Bivels, Op der Millen",,49.950282,6.195971,,,0,,,0,
200412005,,"Gasperich, Clemenceau",,49.589887,6.127856,,,0,,,0,
220105001,,"Noertzange, Am Duerf",,49.508292,6.056474,,,0,,,0,
200412004,,"Gasperich, Émile Bian",,49.580254,6.117796,,,0,,,0,
130101003,,"Bivels, Loch",,49.956600,6.190877,,,0,,,0,
220402014,,"Esch-sur-Alzette, Bd Prince Henri",,49.491752,5.974764,,,0,,,0,
200412003,,"Gasperich, Bei der Auer",,49.591277,6.124758,,,0,,,0,
130101002,,"Bivels, Kierch",,49.959518,6.192896,,,0,,,0,
220402013,,"Esch-sur-Alzette, Bd. Pierre Dupong",,49.510512,5.994483,,,0,,,0,
220803009,,"Mondercange, Hanner Tillen",,49.532467,5.992874,,,0,,,0,
220803008,,"Mondercange, Neidiirfchen",,49.532582,5.992797,,,0,,,0,
220803007,,"Mondercange, Dirbett",,49.524521,5.988662,,,0,,,0,
220803006,,"Mondercange, Cité Steichen",,49.520052,5.986325,,,0,,,0,
220803005,,"Mondercange, Centre",,49.531112,5.987829,,,0,,,0,
180602001,,Lellig,,49.720082,6.435015,,,0,,,0,
220803003,,"Mondercange, Blach",,49.538758,5.986045,,,0,,,0,
220402009,,"Esch-sur-Alzette, Belval",,49.494934,5.954775,,,0,,,0,
220803001,,"Mondercange, A.Thinnes",,49.531012,5.987434,,,0,,,0,
220402007,,"Esch-sur-Alzette, Av. du Rock'n'Roll",,49.500532,5.947714,,,0,,,0,
220402001,,"Esch-sur-Alzette, Place des Remparts",,49.496581,5.981221,,,0,,,0,
220402005,,"Esch-sur-Alzette, Av. de la Paix",,49.508467,5.983666,,,0,,,0,
120102001,,"Surré, Bei der Bréck",,49.902807,5.778945,,,0,,,0,
220402004,,"Esch-sur-Alzette, Auszéibréck",,49.498632,5.970886,,,0,,,0,
120102002,,"Surré, Gënzebierg",,49.902743,5.781818,,,0,,,0,
220402002,,"Esch-sur-Alzette, Villa Mousset",,49.505319,5.987494,,,0,,,0,
200802004,,"Heisdorf, Klouster",,49.674509,6.137331,,,0,,,0,
220803017,,"Mondercange, Musekssall",,49.528943,5.987796,,,0,,,0,
220803016,,"Mondercange, Kierfecht",,49.535374,5.983585,,,0,,,0,
200802001,,"Heisdorf, Altersheem",,49.676041,6.134926,,,0,,,0,
220803015,,"Mondercange, Mausereck",,49.539072,5.986717,,,0,,,0,
200802002,,"Heisdorf, Bei der Parkmauer",,49.671172,6.135905,,,0,,,0,
200802003,,"Heisdorf, Gare",,49.675100,6.139417,,,0,,,0,
220803013,,"Mondercange, Krombach",,49.528742,5.997028,,,0,,,0,
220803011,,"Mondercange, Kazebach",,49.536035,5.989613,,,0,,,0,
220803010,,"Mondercange, J.Bleser Plaz",,49.531601,5.985532,,,0,,,0,
120504001,,Hierheck,,49.873740,5.930387,,,0,,,0,
180508008,,"Godbrange, Op der Haerdchen",,49.733539,6.228503,,,0,,,0,
170202001,,"Bech, Bei der Gemeng",,49.751586,6.362529,,,0,,,0,
180508005,,"Gonderange, Schoul",,49.692922,6.247761,,,0,,,0,
180508004,,"Gonderange, Op der Breck",,49.693568,6.242746,,,0,,,0,
180508007,,"Gonderange, Op der Gare",,49.692619,6.252396,,,0,,,0,
170202005,,"Bech, Um Faubourg",,49.752716,6.359621,,,0,,,0,
170202004,,"Bech, Neidierfchen",,49.752591,6.363599,,,0,,,0,
170202003,,"Bech, Béiwerwiss",,49.748389,6.363577,,,0,,,0,
170202002,,"Bech, Beim Weiher",,49.752274,6.362339,,,0,,,0,
191102001,,"Hagen, 2 Stengëforterstrooss",,49.649130,5.927949,,,0,,,0,
500000005,,"Bilzingen Ort, Wincheringen",,49.598255,6.451546,,,0,,,0,
200412032,,"Gasperich, Lise Meitner",,49.584626,6.120320,,,0,,,0,
200412031,,"Gasperich, Stade de Luxembourg",,49.576443,6.111809,,,0,,,0,
191102004,,"Hagen, Laach",,49.651209,5.923924,,,0,,,0,
500000009,,"Bitburg, ZOB",,49.976053,6.527101,,,0,,,0,
191102005,,"Hagen, Op Eechelter",,49.653737,5.921215,,,0,,,0,
191102002,,"Hagen, Bréck",,49.650241,5.936927,,,0,,,0,
191102003,,"Hagen, Kiirch",,49.648650,5.929170,,,0,,,0,
110704001,,Holler,,50.122840,6.046924,,,0,,,0,
160203001,,"Buschdorf, Belle Vue",,49.746802,6.010219,,,0,,,0,
180501001,,Altlinster,,49.722116,6.218080,,,0,,,0,
170607001,,Burer Millen,,49.771570,6.510636,,,0,,,0,
170607002,,Hierber Millen,,49.740536,6.424747,,,0,,,0,
160203002,,"Buschdorf, Helpërtwee",,49.751107,6.011815,,,0,,,0,
160203003,,"Buschdorf, Määschhaff",,49.750222,6.006815,,,0,,,0,
161105001,,Marienthal,,49.710222,6.058693,,,0,,,0,
170607003,,Pafebierg,,49.766359,6.452600,,,0,,,0,
170607004,,"Mompach, Kléngelbaach",,49.753615,6.462182,,,0,,,0,
170607005,,"Mompach, Buerschdrëferstrooss",,49.753415,6.462900,,,0,,,0,
170607006,,"Mompach, Um Buer",,49.752001,6.464057,,,0,,,0,
120301002,,Erpeldange/Wiltz,,49.977355,5.946881,,,0,,,0,
110412004,,"Wahlhausen, Beim Chalet",,49.990131,6.097164,,,0,,,0,
170303001,,"Grundhof, Grondhaff",,49.835752,6.329174,,,0,,,0,
170303002,,"Grundhof, Bei der Ernz",,49.835105,6.329946,,,0,,,0,
120301003,,"Erpeldange-sur-Sûre, Bei der Schoul",,49.861211,6.114602,,,0,,,0,
150504001,,"Eschette, Duerf",,49.822924,5.886772,,,0,,,0,
400000160,,"Audun-le-Roman, Parking transfrontalier",,49.374798,5.902315,,,0,,,0,
110606001,,"Troisvierges, Gare routière",,50.119403,5.991212,,,0,,,0,
500000023,,"Bitburg, Steinebrück Kreuzung",,49.975160,6.503518,,,0,,,0,
500000024,,"Oberweis, Buchbind. Ollinger",,49.962405,6.431051,,,0,,,0,
110606003,,"Troisvierges, Millebierg",,50.118722,5.995508,,,0,,,0,
500000021,,"Saarburg, Kahren",,49.596181,6.507056,,,0,,,0,
110606002,,"Troisvierges, Mairie",,50.121550,6.001166,,,0,,,0,
110606005,,"Troisvierges, Police",,50.114798,5.989528,,,0,,,0,
200412013,,"Gasperich, Louis de Froment",,49.590252,6.117580,,,0,,,0,
500000027,,"Konz, Konz Mitte",,49.700047,6.573475,,,0,,,0,
110606004,,"Troisvierges, Pasterknapp",,50.128693,6.004316,,,0,,,0,
200412012,,"Gasperich, Lascombes",,49.594250,6.125662,,,0,,,0,
500000028,,Kreuz-Konz,,49.703707,6.577287,,,0,,,0,
110606007,,"Troisvierges, Bënzelterstrooss",,50.119400,6.003259,,,0,,,0,
200412011,,"Gasperich, Klensch",,49.593159,6.119429,,,0,,,0,
110606006,,"Troisvierges, Tomm",,50.125182,6.001428,,,0,,,0,
110606008,,"Troisvierges, Gare",,50.119334,5.991007,,,0,,,0,
500000029,,"Longuich, Parkplatz",,49.808036,6.764541,,,0,,,0,
200704001,,"Schrassig, Bastenhaff",,49.609632,6.258645,,,0,,,0,
200704002,,"Schrassig, Schlassgewan",,49.614533,6.255878,,,0,,,0,
200704003,,"Schrassig, Schwaarz Kaz",,49.613050,6.259007,,,0,,,0,
200412018,,"Gasperich, Schaarfen Eck",,49.579552,6.113133,,,0,,,0,
200509001,,Waldhaff,,49.656908,6.191495,,,0,,,0,
200412016,,"Gasperich, Richard Wagner",,49.589195,6.124271,,,0,,,0,
121001001,,"Berlé, Um Dréisch",,49.953107,5.857938,,,0,,,0,
400000162,,"Villerupt, Barbusse",,49.470905,5.930022,,,0,,,0,
400000161,,"Audun-le-Tiche, Gare routière",,49.478622,5.959902,,,0,,,0,
400000163,,"Roussy-le-Village, P&R",,49.463354,6.181713,,,0,,,0,
220901001,,"Lamadelaine, Avenue de la Gare",,49.551421,5.848572,,,0,,,0,
140603003,,"Ingeldorf, Cité Longchamps",,49.857095,6.141634,,,0,,,0,
500000012,,Ehrang,,49.802076,6.685485,,,0,,,0,
140603002,,"Ingeldorf, Café de la Station",,49.853414,6.131374,,,0,,,0,
500000013,,"Niedergeckler, Kapelle",,49.969787,6.304519,,,0,,,0,
140603001,,"Ingeldorf, Bei der Bréck",,49.851445,6.133953,,,0,,,0,
500000010,,"Dillingen (Saar), Eissporthalle",,49.346701,6.711075,,,0,,,0,
500000011,,"Geichlingen, B50 Abzw. Lahr",,49.953992,6.271144,,,0,,,0,
200412024,,"Gasperich, Hildegard von Bingen",,49.582410,6.122014,,,0,,,0,
220901005,,"Lamadelaine, Maragole",,49.548190,5.849858,,,0,,,0,
200412023,,"Gasperich, Leonardo da Vinci",,49.580724,6.120785,,,0,,,0,
220901004,,"Lamadelaine, Lycée Technique Mathias Adam",,49.554269,5.860669,,,0,,,0,
140603006,,"Ingeldorf, Cactus",,49.850972,6.126120,,,0,,,0,
500000017,,"Oberweis, GH Wirtz",,49.961445,6.423056,,,0,,,0,
200412022,,"Gasperich, Jean Piret",,49.583142,6.118165,,,0,,,0,
220901003,,"Lamadelaine, Kierch",,49.545258,5.853504,,,0,,,0,
140603005,,"Ingeldorf, Walebroch",,49.858340,6.140308,,,0,,,0,
500000014,,"Sinspelt, GH Pax",,49.972306,6.320433,,,0,,,0,
190601001,,Dondelange/Dondel,,49.687932,6.029934,,,0,,,0,
200412021,,"Gasperich, Gerhard Mercator",,49.582564,6.123886,,,0,,,0,
220901002,,"Lamadelaine, Gare routière",,49.553239,5.862145,,,0,,,0,
140603004,,"Ingeldorf, Kiirchplaz",,49.848673,6.127731,,,0,,,0,
500000015,,Hetzerath,,49.878012,6.798408,,,0,,,0,
19060